{"title":"EONET Events","description":"Natural events from EONET.","link":"https://eonet.gsfc.nasa.gov/api/v3/events","events":[{"id":"EONET_13416","title":"Homochitto BB 45 Sub 1 2 RX Wildfire, Franklin, Mississippi","description":null,"link":"https://eonet.gsfc.nasa.gov/api/v3/events/EONET_13416","closed":null,"categories":[{"id":"wildfires","title":"Wildfires"}],"sources":[{"id":"IRWIN","url":"https://irwin.doi.gov/observer/"}],"geometry":[{"magnitudeValue":832,"magnitudeUnit":"acres","date":"2025-04-30T09:48:00Z","type":"Point","coordinates":[-91.065,31.389]}]},{"id":"EONET_13420","title":"Chickasawhay CPT 356 RX Wildfire, Jones, Mississippi","description":null,"link":"https://eonet.gsfc.nasa.gov/api/v3/events/EONET_13420","closed":null,"categories":[{"id":"wildfires","title":"Wildfires"}],"sources":[{"id":"IRWIN","url":"https://irwin.doi.gov/observer/"}],"geometry":[{"magnitudeValue":869,"magnitudeUnit":"acres","date":"2025-04-30T09:35:00Z","type":"Point","coordinates":[-88.9543,31.5353]}]},{"id":"EONET_13418","title":"DeSoto BB 7203 East RX Wildfire, Perry, Mississippi","description":null,"link":"https://eonet.gsfc.nasa.gov/api/v3/events/EONET_13418","closed":null,"categories":[{"id":"wildfires","title":"Wildfires"}],"sources":[{"id":"IRWIN","url":"https://irwin.doi.gov/observer/"}],"geometry":[{"magnitudeValue":2724,"magnitudeUnit":"acres","date":"2025-04-29T11:15:00Z","type":"Point","coordinates":[-88.900278,30.948889]}]},{"id":"EONET_13424","title":"Homochitto BB 36 S Sub 5 RX Wildfire, Wilkinson, Mississippi","description":null,"link":"https://eonet.gsfc.nasa.gov/api/v3/events/EONET_13424","closed":null,"categories":[{"id":"wildfires","title":"Wildfires"}],"sources":[{"id":"IRWIN","url":"https://irwin.doi.gov/observer/"}],"geometry":[{"magnitudeValue":734,"magnitudeUnit":"acres","date":"2025-04-29T10:13:00Z","type":"Point","coordinates":[-91.157,31.296]}]},{"id":"EONET_13422","title":"RX CAT C-32-33-34 Wildfire, Grant, Louisiana","description":null,"link":"https://eonet.gsfc.nasa.gov/api/v3/events/EONET_13422","closed":null,"categories":[{"id":"wildfires","title":"Wildfires"}],"sources":[{"id":"IRWIN","url":"https://irwin.doi.gov/observer/"}],"geometry":[{"magnitudeValue":2522,"magnitudeUnit":"acres","date":"2025-04-29T09:47:00Z","type":"Point","coordinates":[-92.446146,31.675884]}]},{"id":"EONET_13426","title":"RX KIS C-24-25 Wildfire, Natchitoches, Louisiana","description":null,"link":"https://eonet.gsfc.nasa.gov/api/v3/events/EONET_13426","closed":null,"categories":[{"id":"wildfires","title":"Wildfires"}],"sources":[{"id":"IRWIN","url":"https://irwin.doi.gov/observer/"}],"geometry":[{"magnitudeValue":2111,"magnitudeUnit":"acres","date":"2025-04-29T09:17:00Z","type":"Point","coordinates":[-93.058133,31.49885]}]},{"id":"EONET_13425","title":"RX CALE C-49 Wildfire, Rapides, Louisiana","description":null,"link":"https://eonet.gsfc.nasa.gov/api/v3/events/EONET_13425","closed":null,"categories":[{"id":"wildfires","title":"Wildfires"}],"sources":[{"id":"IRWIN","url":"https://irwin.doi.gov/observer/"}],"geometry":[{"magnitudeValue":574,"magnitudeUnit":"acres","date":"2025-04-29T09:16:00Z","type":"Point","coordinates":[-92.5549,31.0907]}]},{"id":"EONET_13414","title":"ANF Guidrey C 65 RX Wildfire, Angelina, Texas","description":null,"link":"https://eonet.gsfc.nasa.gov/api/v3/events/EONET_13414","closed":null,"categories":[{"id":"wildfires","title":"Wildfires"}],"sources":[{"id":"IRWIN","url":"https://irwin.doi.gov/observer/"}],"geometry":[{"magnitudeValue":991,"magnitudeUnit":"acres","date":"2025-04-29T09:11:00Z","type":"Point","coordinates":[-94.32345,31.140417]}]},{"id":"EONET_13410","title":"Horse Heaven Rx Wildfire, Wythe, Virginia","description":null,"link":"https://eonet.gsfc.nasa.gov/api/v3/events/EONET_13410","closed":null,"categories":[{"id":"wildfires","title":"Wildfires"}],"sources":[{"id":"IRWIN","url":"https://irwin.doi.gov/observer/"}],"geometry":[{"magnitudeValue":1098,"magnitudeUnit":"acres","date":"2025-04-29T07:36:00Z","type":"Point","coordinates":[-81.152033,36.777967]}]},{"id":"EONET_13430","title":"rx-Lapham Good Oak 2025 Wildfire, Waukesha, Wisconsin","description":null,"link":"https://eonet.gsfc.nasa.gov/api/v3/events/EONET_13430","closed":null,"categories":[{"id":"wildfires","title":"Wildfires"}],"sources":[{"id":"IRWIN","url":"https://irwin.doi.gov/observer/"}],"geometry":[{"magnitudeValue":638,"magnitudeUnit":"acres","date":"2025-04-28T17:41:00Z","type":"Point","coordinates":[-88.3992015,43.0403647]}]},{"id":"EONET_13408","title":"Stronghold Wildfire, Cochise, Arizona","description":"21 Miles East of the town of Benson, AZ.","link":"https://eonet.gsfc.nasa.gov/api/v3/events/EONET_13408","closed":null,"categories":[{"id":"wildfires","title":"Wildfires"}],"sources":[{"id":"IRWIN","url":"https://irwin.doi.gov/observer/"}],"geometry":[{"magnitudeValue":2138,"magnitudeUnit":"acres","date":"2025-04-28T16:42:00Z","type":"Point","coordinates":[-109.94154,31.93699]}]},{"id":"EONET_13403","title":"DeSoto BB 7209 Northwest RX Wildfire, Perry, Mississippi","description":null,"link":"https://eonet.gsfc.nasa.gov/api/v3/events/EONET_13403","closed":null,"categories":[{"id":"wildfires","title":"Wildfires"}],"sources":[{"id":"IRWIN","url":"https://irwin.doi.gov/observer/"}],"geometry":[{"magnitudeValue":1000,"magnitudeUnit":"acres","date":"2025-04-28T10:56:00Z","type":"Point","coordinates":[-88.909333,31.02825]}]},{"id":"EONET_13429","title":"RX CALE C-362 Wildfire, Rapides, Louisiana","description":null,"link":"https://eonet.gsfc.nasa.gov/api/v3/events/EONET_13429","closed":null,"categories":[{"id":"wildfires","title":"Wildfires"}],"sources":[{"id":"IRWIN","url":"https://irwin.doi.gov/observer/"}],"geometry":[{"magnitudeValue":1796,"magnitudeUnit":"acres","date":"2025-04-28T09:44:00Z","type":"Point","coordinates":[-92.641683,31.171517]}]},{"id":"EONET_13432","title":"RX KIS C-43-44 Wildfire, Natchitoches, Louisiana","description":null,"link":"https://eonet.gsfc.nasa.gov/api/v3/events/EONET_13432","closed":null,"categories":[{"id":"wildfires","title":"Wildfires"}],"sources":[{"id":"IRWIN","url":"https://irwin.doi.gov/observer/"}],"geometry":[{"magnitudeValue":2146,"magnitudeUnit":"acres","date":"2025-04-28T09:16:00Z","type":"Point","coordinates":[-93.0327,31.477867]}]},{"id":"EONET_13370","title":"Wildfire in Australia 1023712","description":null,"link":"https://eonet.gsfc.nasa.gov/api/v3/events/EONET_13370","closed":null,"categories":[{"id":"wildfires","title":"Wildfires"}],"sources":[{"id":"GDACS","url":"https://www.gdacs.org/report.aspx?eventtype=WF&amp;eventid=1023712"}],"geometry":[{"magnitudeValue":null,"magnitudeUnit":null,"date":"2025-04-27T19:00:00Z","type":"Point","coordinates":[127.847305495679,-17.1407481267157]}]},{"id":"EONET_13409","title":"BLACK SWAMP Wildfire, Jones, North Carolina","description":"Jones County, 6 miles SE of Maysville, NC","link":"https://eonet.gsfc.nasa.gov/api/v3/events/EONET_13409","closed":null,"categories":[{"id":"wildfires","title":"Wildfires"}],"sources":[{"id":"IRWIN","url":"https://irwin.doi.gov/observer/"}],"geometry":[{"magnitudeValue":950,"magnitudeUnit":"acres","date":"2025-04-27T13:46:00Z","type":"Point","coordinates":[-77.114133,34.862633]}]},{"id":"EONET_13434","title":"Dutch Mill RX Wildfire, Delta, Michigan","description":null,"link":"https://eonet.gsfc.nasa.gov/api/v3/events/EONET_13434","closed":null,"categories":[{"id":"wildfires","title":"Wildfires"}],"sources":[{"id":"IRWIN","url":"https://irwin.doi.gov/observer/"}],"geometry":[{"magnitudeValue":566,"magnitudeUnit":"acres","date":"2025-04-26T14:23:00Z","type":"Point","coordinates":[-86.95,46.045333]}]},{"id":"EONET_13439","title":"Farrell RX Wildfire, Codington, South Dakota","description":null,"link":"https://eonet.gsfc.nasa.gov/api/v3/events/EONET_13439","closed":null,"categories":[{"id":"wildfires","title":"Wildfires"}],"sources":[{"id":"IRWIN","url":"https://irwin.doi.gov/observer/"}],"geometry":[{"magnitudeValue":549,"magnitudeUnit":"acres","date":"2025-04-26T08:34:00Z","type":"Point","coordinates":[-96.973,44.8851]}]},{"id":"EONET_13428","title":"27 FIRE Wildfire, Broward, Florida","description":"Broward County, Weston, Florida","link":"https://eonet.gsfc.nasa.gov/api/v3/events/EONET_13428","closed":null,"categories":[{"id":"wildfires","title":"Wildfires"}],"sources":[{"id":"IRWIN","url":"https://irwin.doi.gov/observer/"}],"geometry":[{"magnitudeValue":500,"magnitudeUnit":"acres","date":"2025-04-25T14:15:00Z","type":"Point","coordinates":[-80.4502778,26.0847222]}]},{"id":"EONET_13436","title":"Bee Island Fire (58) Wildfire, Sarasota, Florida","description":"Myakka State Park: 13208 State Road 72 (Bee Island Primitive Campsite area), Sar","link":"https://eonet.gsfc.nasa.gov/api/v3/events/EONET_13436","closed":null,"categories":[{"id":"wildfires","title":"Wildfires"}],"sources":[{"id":"IRWIN","url":"https://irwin.doi.gov/observer/"}],"geometry":[{"magnitudeValue":706,"magnitudeUnit":"acres","date":"2025-04-24T20:48:00Z","type":"Point","coordinates":[-82.2608333,27.2613889]}]},{"id":"EONET_13419","title":"Thompson Hollow Rd. Wildfire, Adams, Pennsylvania","description":"20 miles SE of Shippensburg PA.","link":"https://eonet.gsfc.nasa.gov/api/v3/events/EONET_13419","closed":null,"categories":[{"id":"wildfires","title":"Wildfires"}],"sources":[{"id":"IRWIN","url":"https://irwin.doi.gov/observer/"}],"geometry":[{"magnitudeValue":2248,"magnitudeUnit":"acres","date":"2025-04-24T16:57:00Z","type":"Point","coordinates":[-77.403951,39.988532]}]},{"id":"EONET_13441","title":"Fore Mountain Rx Wildfire, Alleghany, Virginia","description":null,"link":"https://eonet.gsfc.nasa.gov/api/v3/events/EONET_13441","closed":null,"categories":[{"id":"wildfires","title":"Wildfires"}],"sources":[{"id":"IRWIN","url":"https://irwin.doi.gov/observer/"}],"geometry":[{"magnitudeValue":1300,"magnitudeUnit":"acres","date":"2025-04-24T07:40:00Z","type":"Point","coordinates":[-79.87395,37.843583]}]},{"id":"EONET_6051","title":"Iceberg C39","description":null,"link":"https://eonet.gsfc.nasa.gov/api/v3/events/EONET_6051","closed":null,"categories":[{"id":"seaLakeIce","title":"Sea and Lake Ice"}],"sources":[{"id":"NATICE","url":"https://usicecenter.gov/pub/Iceberg_Tabular.csv"}],"geometry":[{"magnitudeValue":120,"magnitudeUnit":"NM^2","date":"2022-04-29T00:00:00Z","type":"Point","coordinates":[99.61,-65.68]},{"magnitudeValue":105,"magnitudeUnit":"NM^2","date":"2023-02-03T00:00:00Z","type":"Point","coordinates":[99.15,-65.16]},{"magnitudeValue":120,"magnitudeUnit":"NM^2","date":"2023-08-11T00:00:00Z","type":"Point","coordinates":[98.37,-64.78]},{"magnitudeValue":120,"magnitudeUnit":"NM^2","date":"2025-04-24T00:00:00Z","type":"Point","coordinates":[97.94,-64.27]},{"magnitudeValue":120,"magnitudeUnit":"NM^2","date":"2025-05-02T00:00:00Z","type":"Point","coordinates":[95.86,-64.34]}]},{"id":"EONET_13367","title":"Iceberg A23C","description":null,"link":"https://eonet.gsfc.nasa.gov/api/v3/events/EONET_13367","closed":null,"categories":[{"id":"seaLakeIce","title":"Sea and Lake Ice"}],"sources":[{"id":"NATICE","url":"https://usicecenter.gov/pub/Iceberg_Tabular.csv"}],"geometry":[{"magnitudeValue":37.75,"magnitudeUnit":"NM^2","date":"2025-04-24T00:00:00Z","type":"Point","coordinates":[-36.83,-56.25]},{"magnitudeValue":44,"magnitudeUnit":"NM^2","date":"2025-05-02T00:00:00Z","type":"Point","coordinates":[-34.16,-56.76]}]},{"id":"EONET_13368","title":"Iceberg D36A","description":null,"link":"https://eonet.gsfc.nasa.gov/api/v3/events/EONET_13368","closed":null,"categories":[{"id":"seaLakeIce","title":"Sea and Lake Ice"}],"sources":[{"id":"NATICE","url":"https://usicecenter.gov/pub/Iceberg_Tabular.csv"}],"geometry":[{"magnitudeValue":12.99,"magnitudeUnit":"NM^2","date":"2025-04-24T00:00:00Z","type":"Point","coordinates":[86.55,-66.32]}]},{"id":"EONET_13369","title":"Iceberg D36B","description":null,"link":"https://eonet.gsfc.nasa.gov/api/v3/events/EONET_13369","closed":null,"categories":[{"id":"seaLakeIce","title":"Sea and Lake Ice"}],"sources":[{"id":"NATICE","url":"https://usicecenter.gov/pub/Iceberg_Tabular.csv"}],"geometry":[{"magnitudeValue":7.92,"magnitudeUnit":"NM^2","date":"2025-04-24T00:00:00Z","type":"Point","coordinates":[86.74,-66.25]}]},{"id":"EONET_13364","title":"Jones Road Wildfire, Ocean, New Jersey","description":"Intersection of Bryant Road and Jones Road","link":"https://eonet.gsfc.nasa.gov/api/v3/events/EONET_13364","closed":null,"categories":[{"id":"wildfires","title":"Wildfires"}],"sources":[{"id":"IRWIN","url":"https://irwin.doi.gov/observer/"}],"geometry":[{"magnitudeValue":15300,"magnitudeUnit":"acres","date":"2025-04-23T08:28:00Z","type":"Point","coordinates":[-74.299352,39.795177]}]},{"id":"EONET_13407","title":"Curry Island (22) Wildfire, Glades, Florida","description":"Glades County, Lakeport, Florida","link":"https://eonet.gsfc.nasa.gov/api/v3/events/EONET_13407","closed":null,"categories":[{"id":"wildfires","title":"Wildfires"}],"sources":[{"id":"IRWIN","url":"https://irwin.doi.gov/observer/"}],"geometry":[{"magnitudeValue":1050,"magnitudeUnit":"acres","date":"2025-04-22T23:20:00Z","type":"Point","coordinates":[-81.1119444,26.9552778]}]},{"id":"EONET_13354","title":"Wildfire in Russian Federation 1023700","description":null,"link":"https://eonet.gsfc.nasa.gov/api/v3/events/EONET_13354","closed":null,"categories":[{"id":"wildfires","title":"Wildfires"}],"sources":[{"id":"GDACS","url":"https://www.gdacs.org/report.aspx?eventtype=WF&amp;eventid=1023700"}],"geometry":[{"magnitudeValue":null,"magnitudeUnit":null,"date":"2025-04-22T19:00:00Z","type":"Point","coordinates":[115.295023015121,52.7369507739979]}]},{"id":"EONET_13358","title":"Wildfire in Russian Federation 1023704","description":null,"link":"https://eonet.gsfc.nasa.gov/api/v3/events/EONET_13358","closed":null,"categories":[{"id":"wildfires","title":"Wildfires"}],"sources":[{"id":"GDACS","url":"https://www.gdacs.org/report.aspx?eventtype=WF&amp;eventid=1023704"}],"geometry":[{"magnitudeValue":null,"magnitudeUnit":null,"date":"2025-04-22T19:00:00Z","type":"Point","coordinates":[115.892418128941,52.828362692069]}]},{"id":"EONET_13359","title":"Wildfire in Russian Federation 1023706","description":null,"link":"https://eonet.gsfc.nasa.gov/api/v3/events/EONET_13359","closed":null,"categories":[{"id":"wildfires","title":"Wildfires"}],"sources":[{"id":"GDACS","url":"https://www.gdacs.org/report.aspx?eventtype=WF&amp;eventid=1023706"}],"geometry":[{"magnitudeValue":null,"magnitudeUnit":null,"date":"2025-04-22T19:00:00Z","type":"Point","coordinates":[114.457559167438,52.5772305722646]}]},{"id":"EONET_13360","title":"Wildfire in Russian Federation 1023707","description":null,"link":"https://eonet.gsfc.nasa.gov/api/v3/events/EONET_13360","closed":null,"categories":[{"id":"wildfires","title":"Wildfires"}],"sources":[{"id":"GDACS","url":"https://www.gdacs.org/report.aspx?eventtype=WF&amp;eventid=1023707"}],"geometry":[{"magnitudeValue":null,"magnitudeUnit":null,"date":"2025-04-22T19:00:00Z","type":"Point","coordinates":[115.90383242125,52.8284254725683]}]},{"id":"EONET_13365","title":"Wildfire in Russian Federation 1023710","description":null,"link":"https://eonet.gsfc.nasa.gov/api/v3/events/EONET_13365","closed":null,"categories":[{"id":"wildfires","title":"Wildfires"}],"sources":[{"id":"GDACS","url":"https://www.gdacs.org/report.aspx?eventtype=WF&amp;eventid=1023710"}],"geometry":[{"magnitudeValue":null,"magnitudeUnit":null,"date":"2025-04-22T19:00:00Z","type":"Point","coordinates":[116.288764338758,53.3039610885138]}]},{"id":"EONET_13435","title":"Pines RX Wildfire, Sevier, Utah","description":null,"link":"https://eonet.gsfc.nasa.gov/api/v3/events/EONET_13435","closed":null,"categories":[{"id":"wildfires","title":"Wildfires"}],"sources":[{"id":"IRWIN","url":"https://irwin.doi.gov/observer/"}],"geometry":[{"magnitudeValue":1800,"magnitudeUnit":"acres","date":"2025-04-22T13:37:00Z","type":"Point","coordinates":[-111.3249,38.990911]}]},{"id":"EONET_13445","title":"NW Prairie South RX Wildfire, Lac qui Parle, Minnesota","description":null,"link":"https://eonet.gsfc.nasa.gov/api/v3/events/EONET_13445","closed":null,"categories":[{"id":"wildfires","title":"Wildfires"}],"sources":[{"id":"IRWIN","url":"https://irwin.doi.gov/observer/"}],"geometry":[{"magnitudeValue":655,"magnitudeUnit":"acres","date":"2025-04-22T12:12:00Z","type":"Point","coordinates":[-96.4467,45.2683]}]},{"id":"EONET_13417","title":"Plum Creek Wildfire, Brown, Nebraska","description":"Brown County, 5 miles NE of Johnstown, NE","link":"https://eonet.gsfc.nasa.gov/api/v3/events/EONET_13417","closed":null,"categories":[{"id":"wildfires","title":"Wildfires"}],"sources":[{"id":"IRWIN","url":"https://irwin.doi.gov/observer/"}],"geometry":[{"magnitudeValue":7075,"magnitudeUnit":"acres","date":"2025-04-21T19:35:00Z","type":"Point","coordinates":[-100.149164,42.599661]}]},{"id":"EONET_13351","title":"Wildfire in Mexico 1023698","description":null,"link":"https://eonet.gsfc.nasa.gov/api/v3/events/EONET_13351","closed":null,"categories":[{"id":"wildfires","title":"Wildfires"}],"sources":[{"id":"GDACS","url":"https://www.gdacs.org/report.aspx?eventtype=WF&amp;eventid=1023698"}],"geometry":[{"magnitudeValue":null,"magnitudeUnit":null,"date":"2025-04-21T19:00:00Z","type":"Point","coordinates":[-105.380689065129,20.1964070485376]}]},{"id":"EONET_13437","title":"LXR Eastside Rx 0419 Wildfire, Palm Beach, Florida","description":null,"link":"https://eonet.gsfc.nasa.gov/api/v3/events/EONET_13437","closed":null,"categories":[{"id":"wildfires","title":"Wildfires"}],"sources":[{"id":"IRWIN","url":"https://irwin.doi.gov/observer/"}],"geometry":[{"magnitudeValue":24100,"magnitudeUnit":"acres","date":"2025-04-21T07:14:00Z","type":"Point","coordinates":[-80.266617,26.535617]}]},{"id":"EONET_13361","title":"Wildfire in Russian Federation 1023708","description":null,"link":"https://eonet.gsfc.nasa.gov/api/v3/events/EONET_13361","closed":null,"categories":[{"id":"wildfires","title":"Wildfires"}],"sources":[{"id":"GDACS","url":"https://www.gdacs.org/report.aspx?eventtype=WF&amp;eventid=1023708"}],"geometry":[{"magnitudeValue":null,"magnitudeUnit":null,"date":"2025-04-20T19:00:00Z","type":"Point","coordinates":[117.196752329107,52.8581748942487]}]},{"id":"EONET_13346","title":"Wildfire in Russian Federation 1023695","description":null,"link":"https://eonet.gsfc.nasa.gov/api/v3/events/EONET_13346","closed":null,"categories":[{"id":"wildfires","title":"Wildfires"}],"sources":[{"id":"GDACS","url":"https://www.gdacs.org/report.aspx?eventtype=WF&amp;eventid=1023695"}],"geometry":[{"magnitudeValue":null,"magnitudeUnit":null,"date":"2025-04-19T19:00:00Z","type":"Point","coordinates":[115.440123149734,52.6955513796812]}]},{"id":"EONET_13355","title":"Wildfire in Russian Federation 1023701","description":null,"link":"https://eonet.gsfc.nasa.gov/api/v3/events/EONET_13355","closed":null,"categories":[{"id":"wildfires","title":"Wildfires"}],"sources":[{"id":"GDACS","url":"https://www.gdacs.org/report.aspx?eventtype=WF&amp;eventid=1023701"}],"geometry":[{"magnitudeValue":null,"magnitudeUnit":null,"date":"2025-04-19T19:00:00Z","type":"Point","coordinates":[115.29493508954,53.0715099724214]}]},{"id":"EONET_13371","title":"Wildfire in Australia 1023713","description":null,"link":"https://eonet.gsfc.nasa.gov/api/v3/events/EONET_13371","closed":null,"categories":[{"id":"wildfires","title":"Wildfires"}],"sources":[{"id":"GDACS","url":"https://www.gdacs.org/report.aspx?eventtype=WF&amp;eventid=1023713"}],"geometry":[{"magnitudeValue":null,"magnitudeUnit":null,"date":"2025-04-19T19:00:00Z","type":"Point","coordinates":[130.398459292914,-18.456151353606]}]},{"id":"EONET_13440","title":"Hwy 210 Wildfire, Pender, North Carolina","description":"NC 210 &amp;amp; NC117","link":"https://eonet.gsfc.nasa.gov/api/v3/events/EONET_13440","closed":null,"categories":[{"id":"wildfires","title":"Wildfires"}],"sources":[{"id":"IRWIN","url":"https://irwin.doi.gov/observer/"}],"geometry":[{"magnitudeValue":661,"magnitudeUnit":"acres","date":"2025-04-19T18:59:00Z","type":"Point","coordinates":[-77.9211111,34.4394444]}]},{"id":"EONET_13433","title":"Danny&#039;s Wildfire, Cumberland, New Jersey","description":"NJ Peaslee Wildlife Management Area, area of  Union Road, Rt. 49 and Mays Landin","link":"https://eonet.gsfc.nasa.gov/api/v3/events/EONET_13433","closed":null,"categories":[{"id":"wildfires","title":"Wildfires"}],"sources":[{"id":"IRWIN","url":"https://irwin.doi.gov/observer/"}],"geometry":[{"magnitudeValue":1327,"magnitudeUnit":"acres","date":"2025-04-19T11:46:00Z","type":"Point","coordinates":[-74.94135,39.39074]}]},{"id":"EONET_13362","title":"Wildfire in Cuba 1023709","description":null,"link":"https://eonet.gsfc.nasa.gov/api/v3/events/EONET_13362","closed":null,"categories":[{"id":"wildfires","title":"Wildfires"}],"sources":[{"id":"GDACS","url":"https://www.gdacs.org/report.aspx?eventtype=WF&amp;eventid=1023709"}],"geometry":[{"magnitudeValue":null,"magnitudeUnit":null,"date":"2025-04-18T19:00:00Z","type":"Point","coordinates":[-83.9159901333926,22.3781080349942]}]},{"id":"EONET_13363","title":"Wildfire in Russian Federation 1023705","description":null,"link":"https://eonet.gsfc.nasa.gov/api/v3/events/EONET_13363","closed":null,"categories":[{"id":"wildfires","title":"Wildfires"}],"sources":[{"id":"GDACS","url":"https://www.gdacs.org/report.aspx?eventtype=WF&amp;eventid=1023705"}],"geometry":[{"magnitudeValue":null,"magnitudeUnit":null,"date":"2025-04-18T19:00:00Z","type":"Point","coordinates":[114.620707897532,52.7538039689879]}]},{"id":"EONET_13232","title":"LIRI FY25 Slant Rock RX Wildfire, Winston, Alabama","description":null,"link":"https://eonet.gsfc.nasa.gov/api/v3/events/EONET_13232","closed":null,"categories":[{"id":"wildfires","title":"Wildfires"}],"sources":[{"id":"IRWIN","url":"https://irwin.doi.gov/observer/"}],"geometry":[{"magnitudeValue":895,"magnitudeUnit":"acres","date":"2025-04-18T10:10:00Z","type":"Point","coordinates":[-87.342075,34.097144]}]},{"id":"EONET_13233","title":"rx-51 North Wildfire, Burnett, Wisconsin","description":null,"link":"https://eonet.gsfc.nasa.gov/api/v3/events/EONET_13233","closed":null,"categories":[{"id":"wildfires","title":"Wildfires"}],"sources":[{"id":"IRWIN","url":"https://irwin.doi.gov/observer/"}],"geometry":[{"magnitudeValue":532.3,"magnitudeUnit":"acres","date":"2025-04-18T09:42:00Z","type":"Point","coordinates":[-92.5678007,45.8658224]}]},{"id":"EONET_13347","title":"Wildfire in Laos 1023696","description":null,"link":"https://eonet.gsfc.nasa.gov/api/v3/events/EONET_13347","closed":null,"categories":[{"id":"wildfires","title":"Wildfires"}],"sources":[{"id":"GDACS","url":"https://www.gdacs.org/report.aspx?eventtype=WF&amp;eventid=1023696"}],"geometry":[{"magnitudeValue":null,"magnitudeUnit":null,"date":"2025-04-17T19:00:00Z","type":"Point","coordinates":[101.595150807496,20.701027346261]}]},{"id":"EONET_13352","title":"Wildfire in Russian Federation 1023699","description":null,"link":"https://eonet.gsfc.nasa.gov/api/v3/events/EONET_13352","closed":null,"categories":[{"id":"wildfires","title":"Wildfires"}],"sources":[{"id":"GDACS","url":"https://www.gdacs.org/report.aspx?eventtype=WF&amp;eventid=1023699"}],"geometry":[{"magnitudeValue":null,"magnitudeUnit":null,"date":"2025-04-17T19:00:00Z","type":"Point","coordinates":[114.646817264062,52.9947915357589]}]},{"id":"EONET_13356","title":"Wildfire in Russian Federation 1023702","description":null,"link":"https://eonet.gsfc.nasa.gov/api/v3/events/EONET_13356","closed":null,"categories":[{"id":"wildfires","title":"Wildfires"}],"sources":[{"id":"GDACS","url":"https://www.gdacs.org/report.aspx?eventtype=WF&amp;eventid=1023702"}],"geometry":[{"magnitudeValue":null,"magnitudeUnit":null,"date":"2025-04-17T19:00:00Z","type":"Point","coordinates":[114.842881907635,53.0212924699497]}]},{"id":"EONET_13366","title":"Wildfire in Russian Federation 1023711","description":null,"link":"https://eonet.gsfc.nasa.gov/api/v3/events/EONET_13366","closed":null,"categories":[{"id":"wildfires","title":"Wildfires"}],"sources":[{"id":"GDACS","url":"https://www.gdacs.org/report.aspx?eventtype=WF&amp;eventid=1023711"}],"geometry":[{"magnitudeValue":null,"magnitudeUnit":null,"date":"2025-04-17T19:00:00Z","type":"Point","coordinates":[116.143153866822,53.2073649939649]}]},{"id":"EONET_13413","title":"DCNF C. 41/42 RX Wildfire, Houston, Texas","description":null,"link":"https://eonet.gsfc.nasa.gov/api/v3/events/EONET_13413","closed":null,"categories":[{"id":"wildfires","title":"Wildfires"}],"sources":[{"id":"IRWIN","url":"https://irwin.doi.gov/observer/"}],"geometry":[{"magnitudeValue":2700,"magnitudeUnit":"acres","date":"2025-04-17T12:27:00Z","type":"Point","coordinates":[-95.220302,31.32807]}]},{"id":"EONET_13244","title":"Tombigbee CPT 79 77 RX Wildfire, Winston, Mississippi","description":null,"link":"https://eonet.gsfc.nasa.gov/api/v3/events/EONET_13244","closed":null,"categories":[{"id":"wildfires","title":"Wildfires"}],"sources":[{"id":"IRWIN","url":"https://irwin.doi.gov/observer/"}],"geometry":[{"magnitudeValue":1445,"magnitudeUnit":"acres","date":"2025-04-17T10:28:00Z","type":"Point","coordinates":[-89.0873,33.2345]}]},{"id":"EONET_13238","title":"RX C1 &amp; C2 Wildfire, Montgomery, Arkansas","description":null,"link":"https://eonet.gsfc.nasa.gov/api/v3/events/EONET_13238","closed":null,"categories":[{"id":"wildfires","title":"Wildfires"}],"sources":[{"id":"IRWIN","url":"https://irwin.doi.gov/observer/"}],"geometry":[{"magnitudeValue":1188,"magnitudeUnit":"acres","date":"2025-04-17T10:24:00Z","type":"Point","coordinates":[-93.785833,34.47]}]},{"id":"EONET_13230","title":"Partridge Two Wildfire, Morrison, Minnesota","description":"8 miles SE of Pierz, MN","link":"https://eonet.gsfc.nasa.gov/api/v3/events/EONET_13230","closed":null,"categories":[{"id":"wildfires","title":"Wildfires"}],"sources":[{"id":"IRWIN","url":"https://irwin.doi.gov/observer/"}],"geometry":[{"magnitudeValue":2300,"magnitudeUnit":"acres","date":"2025-04-17T10:03:00Z","type":"Point","coordinates":[-93.92416,45.924063]}]},{"id":"EONET_13245","title":"Bienville CPT 61 63 RX Wildfire, Scott, Mississippi","description":null,"link":"https://eonet.gsfc.nasa.gov/api/v3/events/EONET_13245","closed":null,"categories":[{"id":"wildfires","title":"Wildfires"}],"sources":[{"id":"IRWIN","url":"https://irwin.doi.gov/observer/"}],"geometry":[{"magnitudeValue":1840,"magnitudeUnit":"acres","date":"2025-04-17T08:53:00Z","type":"Point","coordinates":[-89.433,32.3469]}]},{"id":"EONET_13239","title":"RX Stevens Wildfire, Polk, Arkansas","description":null,"link":"https://eonet.gsfc.nasa.gov/api/v3/events/EONET_13239","closed":null,"categories":[{"id":"wildfires","title":"Wildfires"}],"sources":[{"id":"IRWIN","url":"https://irwin.doi.gov/observer/"}],"geometry":[{"magnitudeValue":1327,"magnitudeUnit":"acres","date":"2025-04-17T08:46:00Z","type":"Point","coordinates":[-94.216111,34.406667]}]},{"id":"EONET_13251","title":"LXR Eastside Rx 0417 Wildfire, Palm Beach, Florida","description":null,"link":"https://eonet.gsfc.nasa.gov/api/v3/events/EONET_13251","closed":null,"categories":[{"id":"wildfires","title":"Wildfires"}],"sources":[{"id":"IRWIN","url":"https://irwin.doi.gov/observer/"}],"geometry":[{"magnitudeValue":10000,"magnitudeUnit":"acres","date":"2025-04-17T08:33:00Z","type":"Point","coordinates":[-80.266617,26.535617]}]},{"id":"EONET_13246","title":"Fed Park RX Wildfire, Mason, Michigan","description":null,"link":"https://eonet.gsfc.nasa.gov/api/v3/events/EONET_13246","closed":null,"categories":[{"id":"wildfires","title":"Wildfires"}],"sources":[{"id":"IRWIN","url":"https://irwin.doi.gov/observer/"}],"geometry":[{"magnitudeValue":2212,"magnitudeUnit":"acres","date":"2025-04-17T08:11:00Z","type":"Point","coordinates":[-86.394333,44.1032]}]},{"id":"EONET_13234","title":"Buck Creek Fire Wildfire, Pushmataha, Oklahoma","description":"7 miles W of Dunbar","link":"https://eonet.gsfc.nasa.gov/api/v3/events/EONET_13234","closed":null,"categories":[{"id":"wildfires","title":"Wildfires"}],"sources":[{"id":"IRWIN","url":"https://irwin.doi.gov/observer/"}],"geometry":[{"magnitudeValue":542,"magnitudeUnit":"acres","date":"2025-04-16T23:28:00Z","type":"Point","coordinates":[-95.6883333,34.4569444]}]},{"id":"EONET_13250","title":"Mio Prairie RX Wildfire, Oscoda, Michigan","description":null,"link":"https://eonet.gsfc.nasa.gov/api/v3/events/EONET_13250","closed":null,"categories":[{"id":"wildfires","title":"Wildfires"}],"sources":[{"id":"IRWIN","url":"https://irwin.doi.gov/observer/"}],"geometry":[{"magnitudeValue":520,"magnitudeUnit":"acres","date":"2025-04-16T12:16:00Z","type":"Point","coordinates":[-84.21381,44.539173]}]},{"id":"EONET_13259","title":"Holly Springs IU 140 1  141 1 RX Wildfire, Yalobusha, Mississippi","description":null,"link":"https://eonet.gsfc.nasa.gov/api/v3/events/EONET_13259","closed":null,"categories":[{"id":"wildfires","title":"Wildfires"}],"sources":[{"id":"IRWIN","url":"https://irwin.doi.gov/observer/"}],"geometry":[{"magnitudeValue":1029,"magnitudeUnit":"acres","date":"2025-04-16T11:23:00Z","type":"Point","coordinates":[-89.7962,34.0568]}]},{"id":"EONET_13260","title":"RX Alamo 17 Wildfire, Garland, Arkansas","description":null,"link":"https://eonet.gsfc.nasa.gov/api/v3/events/EONET_13260","closed":null,"categories":[{"id":"wildfires","title":"Wildfires"}],"sources":[{"id":"IRWIN","url":"https://irwin.doi.gov/observer/"}],"geometry":[{"magnitudeValue":1280,"magnitudeUnit":"acres","date":"2025-04-16T10:11:00Z","type":"Point","coordinates":[-93.348056,34.483056]}]},{"id":"EONET_13256","title":"RX Crystal Peninsula &amp; Hickory Nut Wildfire, Garland, Arkansas","description":null,"link":"https://eonet.gsfc.nasa.gov/api/v3/events/EONET_13256","closed":null,"categories":[{"id":"wildfires","title":"Wildfires"}],"sources":[{"id":"IRWIN","url":"https://irwin.doi.gov/observer/"}],"geometry":[{"magnitudeValue":1200,"magnitudeUnit":"acres","date":"2025-04-16T10:08:00Z","type":"Point","coordinates":[-93.399167,34.556389]}]},{"id":"EONET_13254","title":"RX Bo/Mag Byway Wildfire, Logan, Arkansas","description":null,"link":"https://eonet.gsfc.nasa.gov/api/v3/events/EONET_13254","closed":null,"categories":[{"id":"wildfires","title":"Wildfires"}],"sources":[{"id":"IRWIN","url":"https://irwin.doi.gov/observer/"}],"geometry":[{"magnitudeValue":1022,"magnitudeUnit":"acres","date":"2025-04-16T09:40:00Z","type":"Point","coordinates":[-93.555413,35.241698]}]},{"id":"EONET_13252","title":"RX CAN C23-28 Wildfire, Webster, Louisiana","description":null,"link":"https://eonet.gsfc.nasa.gov/api/v3/events/EONET_13252","closed":null,"categories":[{"id":"wildfires","title":"Wildfires"}],"sources":[{"id":"IRWIN","url":"https://irwin.doi.gov/observer/"}],"geometry":[{"magnitudeValue":1296,"magnitudeUnit":"acres","date":"2025-04-16T09:18:00Z","type":"Point","coordinates":[-93.291667,32.694722]}]},{"id":"EONET_13253","title":"RX CAN C-29 Wildfire, Webster, Louisiana","description":null,"link":"https://eonet.gsfc.nasa.gov/api/v3/events/EONET_13253","closed":null,"categories":[{"id":"wildfires","title":"Wildfires"}],"sources":[{"id":"IRWIN","url":"https://irwin.doi.gov/observer/"}],"geometry":[{"magnitudeValue":1148,"magnitudeUnit":"acres","date":"2025-04-16T09:12:00Z","type":"Point","coordinates":[-93.271667,32.739722]}]},{"id":"EONET_13257","title":"RX Greenhaw Wildfire, Newton, Arkansas","description":null,"link":"https://eonet.gsfc.nasa.gov/api/v3/events/EONET_13257","closed":null,"categories":[{"id":"wildfires","title":"Wildfires"}],"sources":[{"id":"IRWIN","url":"https://irwin.doi.gov/observer/"}],"geometry":[{"magnitudeValue":670,"magnitudeUnit":"acres","date":"2025-04-16T08:43:00Z","type":"Point","coordinates":[-93.0302,35.791717]}]},{"id":"EONET_13258","title":"RX Buffalo Road Wildfire, Scott, Arkansas","description":null,"link":"https://eonet.gsfc.nasa.gov/api/v3/events/EONET_13258","closed":null,"categories":[{"id":"wildfires","title":"Wildfires"}],"sources":[{"id":"IRWIN","url":"https://irwin.doi.gov/observer/"}],"geometry":[{"magnitudeValue":3133,"magnitudeUnit":"acres","date":"2025-04-16T08:36:00Z","type":"Point","coordinates":[-94.110595,34.804925]}]},{"id":"EONET_13444","title":"Site 3 RX A&amp;C Wildfire, Talladega, Alabama","description":null,"link":"https://eonet.gsfc.nasa.gov/api/v3/events/EONET_13444","closed":null,"categories":[{"id":"wildfires","title":"Wildfires"}],"sources":[{"id":"IRWIN","url":"https://irwin.doi.gov/observer/"}],"geometry":[{"magnitudeValue":599,"magnitudeUnit":"acres","date":"2025-04-16T08:27:00Z","type":"Point","coordinates":[-86.19299,33.18283]}]},{"id":"EONET_13265","title":"Jail House RX Wildfire, Winston, Alabama","description":null,"link":"https://eonet.gsfc.nasa.gov/api/v3/events/EONET_13265","closed":null,"categories":[{"id":"wildfires","title":"Wildfires"}],"sources":[{"id":"IRWIN","url":"https://irwin.doi.gov/observer/"}],"geometry":[{"magnitudeValue":1143,"magnitudeUnit":"acres","date":"2025-04-16T08:26:00Z","type":"Point","coordinates":[-87.218833,34.148167]}]},{"id":"EONET_13255","title":"Chase Fuels RX Wildfire, Lake, Michigan","description":null,"link":"https://eonet.gsfc.nasa.gov/api/v3/events/EONET_13255","closed":null,"categories":[{"id":"wildfires","title":"Wildfires"}],"sources":[{"id":"IRWIN","url":"https://irwin.doi.gov/observer/"}],"geometry":[{"magnitudeValue":1845,"magnitudeUnit":"acres","date":"2025-04-16T08:20:00Z","type":"Point","coordinates":[-85.73175,43.830833]}]},{"id":"EONET_13266","title":"Rx Walker 2224 Wildfire, Walker, Texas","description":null,"link":"https://eonet.gsfc.nasa.gov/api/v3/events/EONET_13266","closed":null,"categories":[{"id":"wildfires","title":"Wildfires"}],"sources":[{"id":"IRWIN","url":"https://irwin.doi.gov/observer/"}],"geometry":[{"magnitudeValue":554.9,"magnitudeUnit":"acres","date":"2025-04-16T08:18:00Z","type":"Point","coordinates":[-95.663252,30.656471]}]},{"id":"EONET_13261","title":"RX Wildcat Hollow East Wildfire, Yell, Arkansas","description":null,"link":"https://eonet.gsfc.nasa.gov/api/v3/events/EONET_13261","closed":null,"categories":[{"id":"wildfires","title":"Wildfires"}],"sources":[{"id":"IRWIN","url":"https://irwin.doi.gov/observer/"}],"geometry":[{"magnitudeValue":1496,"magnitudeUnit":"acres","date":"2025-04-16T07:58:00Z","type":"Point","coordinates":[-93.483778,34.864556]}]},{"id":"EONET_13224","title":"Wildfire in Australia 1023684","description":null,"link":"https://eonet.gsfc.nasa.gov/api/v3/events/EONET_13224","closed":null,"categories":[{"id":"wildfires","title":"Wildfires"}],"sources":[{"id":"GDACS","url":"https://www.gdacs.org/report.aspx?eventtype=WF&amp;eventid=1023684"}],"geometry":[{"magnitudeValue":null,"magnitudeUnit":null,"date":"2025-04-15T19:00:00Z","type":"Point","coordinates":[131.051899825058,-15.8352083955634]}]},{"id":"EONET_13225","title":"Wildfire in Australia 1023685","description":null,"link":"https://eonet.gsfc.nasa.gov/api/v3/events/EONET_13225","closed":null,"categories":[{"id":"wildfires","title":"Wildfires"}],"sources":[{"id":"GDACS","url":"https://www.gdacs.org/report.aspx?eventtype=WF&amp;eventid=1023685"}],"geometry":[{"magnitudeValue":null,"magnitudeUnit":null,"date":"2025-04-15T19:00:00Z","type":"Point","coordinates":[147.251371902706,-26.1576946496794]}]},{"id":"EONET_13229","title":"Picker Flats Fire Wildfire, Adair, Oklahoma","description":"Northeast of Proctor, OK","link":"https://eonet.gsfc.nasa.gov/api/v3/events/EONET_13229","closed":null,"categories":[{"id":"wildfires","title":"Wildfires"}],"sources":[{"id":"IRWIN","url":"https://irwin.doi.gov/observer/"}],"geometry":[{"magnitudeValue":786,"magnitudeUnit":"acres","date":"2025-04-15T18:51:00Z","type":"Point","coordinates":[-94.7805556,35.9522222]}]},{"id":"EONET_13241","title":"Bee Rock Creek Wildfire, McDowell, North Carolina","description":"9 Miles Northwest of Marion, NC 9 Miles Northwest of Marion, NC","link":"https://eonet.gsfc.nasa.gov/api/v3/events/EONET_13241","closed":null,"categories":[{"id":"wildfires","title":"Wildfires"}],"sources":[{"id":"IRWIN","url":"https://irwin.doi.gov/observer/"}],"geometry":[{"magnitudeValue":504,"magnitudeUnit":"acres","date":"2025-04-15T17:07:00Z","type":"Point","coordinates":[-82.1080556,35.7994444]}]},{"id":"EONET_13274","title":"RX Ross Creek East 3 Wildfire, Scott, Arkansas","description":null,"link":"https://eonet.gsfc.nasa.gov/api/v3/events/EONET_13274","closed":null,"categories":[{"id":"wildfires","title":"Wildfires"}],"sources":[{"id":"IRWIN","url":"https://irwin.doi.gov/observer/"}],"geometry":[{"magnitudeValue":906,"magnitudeUnit":"acres","date":"2025-04-15T13:08:00Z","type":"Point","coordinates":[-94.070798,34.824078]}]},{"id":"EONET_13271","title":"RX CAT C-39 Wildfire, Grant, Louisiana","description":null,"link":"https://eonet.gsfc.nasa.gov/api/v3/events/EONET_13271","closed":null,"categories":[{"id":"wildfires","title":"Wildfires"}],"sources":[{"id":"IRWIN","url":"https://irwin.doi.gov/observer/"}],"geometry":[{"magnitudeValue":969,"magnitudeUnit":"acres","date":"2025-04-15T09:47:00Z","type":"Point","coordinates":[-92.496831,31.652552]}]},{"id":"EONET_13423","title":"SHNF C. 6/7 RX Wildfire, Montgomery, Texas","description":null,"link":"https://eonet.gsfc.nasa.gov/api/v3/events/EONET_13423","closed":null,"categories":[{"id":"wildfires","title":"Wildfires"}],"sources":[{"id":"IRWIN","url":"https://irwin.doi.gov/observer/"}],"geometry":[{"magnitudeValue":2193,"magnitudeUnit":"acres","date":"2025-04-15T09:46:00Z","type":"Point","coordinates":[-95.78,30.526667]}]},{"id":"EONET_13242","title":"Unit 23 24 26 RX Wildfire, Sherburne, Minnesota","description":null,"link":"https://eonet.gsfc.nasa.gov/api/v3/events/EONET_13242","closed":null,"categories":[{"id":"wildfires","title":"Wildfires"}],"sources":[{"id":"IRWIN","url":"https://irwin.doi.gov/observer/"}],"geometry":[{"magnitudeValue":1646,"magnitudeUnit":"acres","date":"2025-04-15T09:36:00Z","type":"Point","coordinates":[-93.7184,45.484958]}]},{"id":"EONET_13264","title":"IBSP North RX Wildfire, Lake, Illinois","description":null,"link":"https://eonet.gsfc.nasa.gov/api/v3/events/EONET_13264","closed":null,"categories":[{"id":"wildfires","title":"Wildfires"}],"sources":[{"id":"IRWIN","url":"https://irwin.doi.gov/observer/"}],"geometry":[{"magnitudeValue":700,"magnitudeUnit":"acres","date":"2025-04-15T09:36:00Z","type":"Point","coordinates":[-87.809094,42.469322]}]},{"id":"EONET_13267","title":"RX WINN C-23 Wildfire, Winn, Louisiana","description":null,"link":"https://eonet.gsfc.nasa.gov/api/v3/events/EONET_13267","closed":null,"categories":[{"id":"wildfires","title":"Wildfires"}],"sources":[{"id":"IRWIN","url":"https://irwin.doi.gov/observer/"}],"geometry":[{"magnitudeValue":1380,"magnitudeUnit":"acres","date":"2025-04-15T09:21:00Z","type":"Point","coordinates":[-92.853611,32.0775]}]},{"id":"EONET_13270","title":"ANF Townsend C. 15 RX Wildfire, San Augustine, Texas","description":null,"link":"https://eonet.gsfc.nasa.gov/api/v3/events/EONET_13270","closed":null,"categories":[{"id":"wildfires","title":"Wildfires"}],"sources":[{"id":"IRWIN","url":"https://irwin.doi.gov/observer/"}],"geometry":[{"magnitudeValue":1268,"magnitudeUnit":"acres","date":"2025-04-15T09:21:00Z","type":"Point","coordinates":[-94.297051,31.357727]}]},{"id":"EONET_13273","title":"RX CALE C-361 Wildfire, Rapides, Louisiana","description":null,"link":"https://eonet.gsfc.nasa.gov/api/v3/events/EONET_13273","closed":null,"categories":[{"id":"wildfires","title":"Wildfires"}],"sources":[{"id":"IRWIN","url":"https://irwin.doi.gov/observer/"}],"geometry":[{"magnitudeValue":1830,"magnitudeUnit":"acres","date":"2025-04-15T09:03:00Z","type":"Point","coordinates":[-92.614417,31.2002]}]},{"id":"EONET_13235","title":"Hilliardville Wildfire, Wakulla, Florida","description":"Hilliardville","link":"https://eonet.gsfc.nasa.gov/api/v3/events/EONET_13235","closed":null,"categories":[{"id":"wildfires","title":"Wildfires"}],"sources":[{"id":"IRWIN","url":"https://irwin.doi.gov/observer/"}],"geometry":[{"magnitudeValue":1291,"magnitudeUnit":"acres","date":"2025-04-15T08:16:00Z","type":"Point","coordinates":[-84.405556,30.2825]}]},{"id":"EONET_13236","title":"Blue Jay Wildfire, Montgomery, Texas","description":"SHNF - COMP. 7 - FM 149 and Bethel road best access is FS Rd. 203","link":"https://eonet.gsfc.nasa.gov/api/v3/events/EONET_13236","closed":null,"categories":[{"id":"wildfires","title":"Wildfires"}],"sources":[{"id":"IRWIN","url":"https://irwin.doi.gov/observer/"}],"geometry":[{"magnitudeValue":700,"magnitudeUnit":"acres","date":"2025-04-14T21:14:00Z","type":"Point","coordinates":[-95.768467,30.52675]}]},{"id":"EONET_13335","title":"Wildfire in Russian Federation 1023690","description":null,"link":"https://eonet.gsfc.nasa.gov/api/v3/events/EONET_13335","closed":null,"categories":[{"id":"wildfires","title":"Wildfires"}],"sources":[{"id":"GDACS","url":"https://www.gdacs.org/report.aspx?eventtype=WF&amp;eventid=1023690"}],"geometry":[{"magnitudeValue":null,"magnitudeUnit":null,"date":"2025-04-14T19:00:00Z","type":"Point","coordinates":[114.841990553136,52.4141255789278]}]},{"id":"EONET_13353","title":"Wildfire in Russian Federation 1023697","description":null,"link":"https://eonet.gsfc.nasa.gov/api/v3/events/EONET_13353","closed":null,"categories":[{"id":"wildfires","title":"Wildfires"}],"sources":[{"id":"GDACS","url":"https://www.gdacs.org/report.aspx?eventtype=WF&amp;eventid=1023697"}],"geometry":[{"magnitudeValue":null,"magnitudeUnit":null,"date":"2025-04-14T19:00:00Z","type":"Point","coordinates":[115.600384525175,53.6165289684011]}]},{"id":"EONET_13357","title":"Wildfire in Russian Federation 1023703","description":null,"link":"https://eonet.gsfc.nasa.gov/api/v3/events/EONET_13357","closed":null,"categories":[{"id":"wildfires","title":"Wildfires"}],"sources":[{"id":"GDACS","url":"https://www.gdacs.org/report.aspx?eventtype=WF&amp;eventid=1023703"}],"geometry":[{"magnitudeValue":null,"magnitudeUnit":null,"date":"2025-04-14T19:00:00Z","type":"Point","coordinates":[114.547488469464,52.6629980773187]}]},{"id":"EONET_13269","title":"Mill Creek RX Wildfire, Jackson, Illinois","description":null,"link":"https://eonet.gsfc.nasa.gov/api/v3/events/EONET_13269","closed":null,"categories":[{"id":"wildfires","title":"Wildfires"}],"sources":[{"id":"IRWIN","url":"https://irwin.doi.gov/observer/"}],"geometry":[{"magnitudeValue":700,"magnitudeUnit":"acres","date":"2025-04-14T17:51:00Z","type":"Point","coordinates":[-89.26545,37.607083]}]},{"id":"EONET_13284","title":"FY25 TAPR WP1 RP1 RP2 CH1 CH2 RX BIL Wildfire, Chase, Kansas","description":null,"link":"https://eonet.gsfc.nasa.gov/api/v3/events/EONET_13284","closed":null,"categories":[{"id":"wildfires","title":"Wildfires"}],"sources":[{"id":"IRWIN","url":"https://irwin.doi.gov/observer/"}],"geometry":[{"magnitudeValue":1800,"magnitudeUnit":"acres","date":"2025-04-14T17:15:00Z","type":"Point","coordinates":[-96.587222,38.421667]}]},{"id":"EONET_13231","title":"West Funk Lagoon WPA Unit RX Wildfire, Phelps, Nebraska","description":null,"link":"https://eonet.gsfc.nasa.gov/api/v3/events/EONET_13231","closed":null,"categories":[{"id":"wildfires","title":"Wildfires"}],"sources":[{"id":"IRWIN","url":"https://irwin.doi.gov/observer/"}],"geometry":[{"magnitudeValue":1314,"magnitudeUnit":"acres","date":"2025-04-14T16:22:00Z","type":"Point","coordinates":[-99.246068,40.488774]}]},{"id":"EONET_13249","title":"LAST CHANCE Wildfire, Delaware, Oklahoma","description":"4.6 miles E of Kenwood, OK","link":"https://eonet.gsfc.nasa.gov/api/v3/events/EONET_13249","closed":null,"categories":[{"id":"wildfires","title":"Wildfires"}],"sources":[{"id":"IRWIN","url":"https://irwin.doi.gov/observer/"}],"geometry":[{"magnitudeValue":1200,"magnitudeUnit":"acres","date":"2025-04-14T14:43:00Z","type":"Point","coordinates":[-94.884444,36.286667]}]},{"id":"EONET_13443","title":"MTMLR-BIL-FY25-RX-Unit 10 Wildfire, Cascade, Montana","description":null,"link":"https://eonet.gsfc.nasa.gov/api/v3/events/EONET_13443","closed":null,"categories":[{"id":"wildfires","title":"Wildfires"}],"sources":[{"id":"IRWIN","url":"https://irwin.doi.gov/observer/"}],"geometry":[{"magnitudeValue":1447,"magnitudeUnit":"acres","date":"2025-04-14T12:08:00Z","type":"Point","coordinates":[-111.314507,47.681194]}]},{"id":"EONET_13288","title":"Holly Springs IU 131 2  134 1 RX Wildfire, Yalobusha, Mississippi","description":null,"link":"https://eonet.gsfc.nasa.gov/api/v3/events/EONET_13288","closed":null,"categories":[{"id":"wildfires","title":"Wildfires"}],"sources":[{"id":"IRWIN","url":"https://irwin.doi.gov/observer/"}],"geometry":[{"magnitudeValue":1236,"magnitudeUnit":"acres","date":"2025-04-14T11:52:00Z","type":"Point","coordinates":[-89.8031,33.9393]}]},{"id":"EONET_13247","title":"Double S Middle RX Wildfire, Thomas, Nebraska","description":null,"link":"https://eonet.gsfc.nasa.gov/api/v3/events/EONET_13247","closed":null,"categories":[{"id":"wildfires","title":"Wildfires"}],"sources":[{"id":"IRWIN","url":"https://irwin.doi.gov/observer/"}],"geometry":[{"magnitudeValue":1300,"magnitudeUnit":"acres","date":"2025-04-14T11:34:00Z","type":"Point","coordinates":[-100.359867,41.793133]}]},{"id":"EONET_13285","title":"RX WINN C-12-19 Wildfire, Natchitoches, Louisiana","description":null,"link":"https://eonet.gsfc.nasa.gov/api/v3/events/EONET_13285","closed":null,"categories":[{"id":"wildfires","title":"Wildfires"}],"sources":[{"id":"IRWIN","url":"https://irwin.doi.gov/observer/"}],"geometry":[{"magnitudeValue":2541,"magnitudeUnit":"acres","date":"2025-04-14T11:03:00Z","type":"Point","coordinates":[-92.932778,32.106667]}]},{"id":"EONET_13278","title":"Chickasawhay CPT 375 376 RX Wildfire, Wayne, Mississippi","description":null,"link":"https://eonet.gsfc.nasa.gov/api/v3/events/EONET_13278","closed":null,"categories":[{"id":"wildfires","title":"Wildfires"}],"sources":[{"id":"IRWIN","url":"https://irwin.doi.gov/observer/"}],"geometry":[{"magnitudeValue":1225,"magnitudeUnit":"acres","date":"2025-04-14T10:07:00Z","type":"Point","coordinates":[-88.941389,31.519722]}]},{"id":"EONET_13287","title":"SHNF C 70/72 RX Wildfire, Walker, Texas","description":null,"link":"https://eonet.gsfc.nasa.gov/api/v3/events/EONET_13287","closed":null,"categories":[{"id":"wildfires","title":"Wildfires"}],"sources":[{"id":"IRWIN","url":"https://irwin.doi.gov/observer/"}],"geometry":[{"magnitudeValue":2678,"magnitudeUnit":"acres","date":"2025-04-14T09:38:00Z","type":"Point","coordinates":[-95.4,30.666667]}]},{"id":"EONET_13279","title":"rx-Kincaid Spring Wildfire, Waukesha, Wisconsin","description":null,"link":"https://eonet.gsfc.nasa.gov/api/v3/events/EONET_13279","closed":null,"categories":[{"id":"wildfires","title":"Wildfires"}],"sources":[{"id":"IRWIN","url":"https://irwin.doi.gov/observer/"}],"geometry":[{"magnitudeValue":517.9,"magnitudeUnit":"acres","date":"2025-04-14T09:31:00Z","type":"Point","coordinates":[-88.5287624,43.0023488]}]},{"id":"EONET_13281","title":"RX Stob Gap 12 Alexander Mtn 5 Wildfire, Franklin, Arkansas","description":null,"link":"https://eonet.gsfc.nasa.gov/api/v3/events/EONET_13281","closed":null,"categories":[{"id":"wildfires","title":"Wildfires"}],"sources":[{"id":"IRWIN","url":"https://irwin.doi.gov/observer/"}],"geometry":[{"magnitudeValue":2259,"magnitudeUnit":"acres","date":"2025-04-14T08:44:00Z","type":"Point","coordinates":[-93.9493,35.6928]}]},{"id":"EONET_13282","title":"RX N Bee Rough Wildfire, McCurtain, Oklahoma","description":null,"link":"https://eonet.gsfc.nasa.gov/api/v3/events/EONET_13282","closed":null,"categories":[{"id":"wildfires","title":"Wildfires"}],"sources":[{"id":"IRWIN","url":"https://irwin.doi.gov/observer/"}],"geometry":[{"magnitudeValue":1900,"magnitudeUnit":"acres","date":"2025-04-14T08:42:00Z","type":"Point","coordinates":[-94.705967,34.254]}]},{"id":"EONET_13268","title":"RX Beech Creek C4 C5 C6 Wildfire, Montgomery, Arkansas","description":null,"link":"https://eonet.gsfc.nasa.gov/api/v3/events/EONET_13268","closed":null,"categories":[{"id":"wildfires","title":"Wildfires"}],"sources":[{"id":"IRWIN","url":"https://irwin.doi.gov/observer/"}],"geometry":[{"magnitudeValue":4396,"magnitudeUnit":"acres","date":"2025-04-14T08:26:00Z","type":"Point","coordinates":[-93.815278,34.483611]}]},{"id":"EONET_13280","title":"RX Wildcat cr/ Barnhart West Wildfire, Yell, Arkansas","description":null,"link":"https://eonet.gsfc.nasa.gov/api/v3/events/EONET_13280","closed":null,"categories":[{"id":"wildfires","title":"Wildfires"}],"sources":[{"id":"IRWIN","url":"https://irwin.doi.gov/observer/"}],"geometry":[{"magnitudeValue":4216,"magnitudeUnit":"acres","date":"2025-04-14T08:12:00Z","type":"Point","coordinates":[-93.435167,34.897222]}]},{"id":"EONET_13276","title":"South 19th RX Wildfire, Coffey, Kansas","description":null,"link":"https://eonet.gsfc.nasa.gov/api/v3/events/EONET_13276","closed":null,"categories":[{"id":"wildfires","title":"Wildfires"}],"sources":[{"id":"IRWIN","url":"https://irwin.doi.gov/observer/"}],"geometry":[{"magnitudeValue":840,"magnitudeUnit":"acres","date":"2025-04-13T20:17:00Z","type":"Point","coordinates":[-95.935554,38.30984]}]},{"id":"EONET_13275","title":"Ceder River Fire Wildfire, Adams, North Dakota","description":"23 miles NE of Hettinger, ND.","link":"https://eonet.gsfc.nasa.gov/api/v3/events/EONET_13275","closed":null,"categories":[{"id":"wildfires","title":"Wildfires"}],"sources":[{"id":"IRWIN","url":"https://irwin.doi.gov/observer/"}],"geometry":[{"magnitudeValue":8730,"magnitudeUnit":"acres","date":"2025-04-13T16:56:00Z","type":"Point","coordinates":[-102.2683333,46.0130556]}]},{"id":"EONET_13283","title":"rx-78 Wildfire, Burnett, Wisconsin","description":null,"link":"https://eonet.gsfc.nasa.gov/api/v3/events/EONET_13283","closed":null,"categories":[{"id":"wildfires","title":"Wildfires"}],"sources":[{"id":"IRWIN","url":"https://irwin.doi.gov/observer/"}],"geometry":[{"magnitudeValue":1268,"magnitudeUnit":"acres","date":"2025-04-13T15:27:00Z","type":"Point","coordinates":[-92.6214841,45.8719037]}]},{"id":"EONET_13286","title":"Wiregrass RX Wildfire, Clay, Alabama","description":null,"link":"https://eonet.gsfc.nasa.gov/api/v3/events/EONET_13286","closed":null,"categories":[{"id":"wildfires","title":"Wildfires"}],"sources":[{"id":"IRWIN","url":"https://irwin.doi.gov/observer/"}],"geometry":[{"magnitudeValue":919,"magnitudeUnit":"acres","date":"2025-04-13T13:37:00Z","type":"Point","coordinates":[-86.170833,33.177222]}]},{"id":"EONET_13349","title":"Raung Volcano, Indonesia","description":null,"link":"https://eonet.gsfc.nasa.gov/api/v3/events/EONET_13349","closed":null,"categories":[{"id":"volcanoes","title":"Volcanoes"}],"sources":[{"id":"SIVolcano","url":"https://volcano.si.edu/volcano.cfm?vn=263340"}],"geometry":[{"magnitudeValue":null,"magnitudeUnit":null,"date":"2025-04-13T00:00:00Z","type":"Point","coordinates":[114.056,-8.119]}]},{"id":"EONET_13237","title":"HAOE LEAD Wildfire, Graham, North Carolina","description":"Joyce Kilmer Wilderness Area","link":"https://eonet.gsfc.nasa.gov/api/v3/events/EONET_13237","closed":null,"categories":[{"id":"wildfires","title":"Wildfires"}],"sources":[{"id":"IRWIN","url":"https://irwin.doi.gov/observer/"}],"geometry":[{"magnitudeValue":800,"magnitudeUnit":"acres","date":"2025-04-12T20:37:00Z","type":"Point","coordinates":[-83.940333,35.376467]}]},{"id":"EONET_13240","title":"Juniper Swamp Wildfire, Liberty, Florida","description":"NE of Camel Lake","link":"https://eonet.gsfc.nasa.gov/api/v3/events/EONET_13240","closed":null,"categories":[{"id":"wildfires","title":"Wildfires"}],"sources":[{"id":"IRWIN","url":"https://irwin.doi.gov/observer/"}],"geometry":[{"magnitudeValue":1000,"magnitudeUnit":"acres","date":"2025-04-12T19:23:00Z","type":"Point","coordinates":[-84.9662,30.296333]}]},{"id":"EONET_13212","title":"Wildfire in Russian Federation 1023674","description":null,"link":"https://eonet.gsfc.nasa.gov/api/v3/events/EONET_13212","closed":null,"categories":[{"id":"wildfires","title":"Wildfires"}],"sources":[{"id":"GDACS","url":"https://www.gdacs.org/report.aspx?eventtype=WF&amp;eventid=1023674"}],"geometry":[{"magnitudeValue":null,"magnitudeUnit":null,"date":"2025-04-12T19:00:00Z","type":"Point","coordinates":[114.084875369482,52.8587669980219]}]},{"id":"EONET_13220","title":"Wildfire in Russian Federation 1023680","description":null,"link":"https://eonet.gsfc.nasa.gov/api/v3/events/EONET_13220","closed":null,"categories":[{"id":"wildfires","title":"Wildfires"}],"sources":[{"id":"GDACS","url":"https://www.gdacs.org/report.aspx?eventtype=WF&amp;eventid=1023680"}],"geometry":[{"magnitudeValue":null,"magnitudeUnit":null,"date":"2025-04-12T19:00:00Z","type":"Point","coordinates":[112.856756314929,54.0913338257446]}]},{"id":"EONET_13227","title":"Wildfire in Australia 1023687","description":null,"link":"https://eonet.gsfc.nasa.gov/api/v3/events/EONET_13227","closed":null,"categories":[{"id":"wildfires","title":"Wildfires"}],"sources":[{"id":"GDACS","url":"https://www.gdacs.org/report.aspx?eventtype=WF&amp;eventid=1023687"}],"geometry":[{"magnitudeValue":null,"magnitudeUnit":null,"date":"2025-04-12T19:00:00Z","type":"Point","coordinates":[140.384483549624,-21.1276386416661]}]},{"id":"EONET_13333","title":"Wildfire in Russian Federation 1023688","description":null,"link":"https://eonet.gsfc.nasa.gov/api/v3/events/EONET_13333","closed":null,"categories":[{"id":"wildfires","title":"Wildfires"}],"sources":[{"id":"GDACS","url":"https://www.gdacs.org/report.aspx?eventtype=WF&amp;eventid=1023688"}],"geometry":[{"magnitudeValue":null,"magnitudeUnit":null,"date":"2025-04-12T19:00:00Z","type":"Point","coordinates":[116.445841970029,53.5576058133253]}]},{"id":"EONET_13336","title":"Wildfire in Russian Federation 1023691","description":null,"link":"https://eonet.gsfc.nasa.gov/api/v3/events/EONET_13336","closed":null,"categories":[{"id":"wildfires","title":"Wildfires"}],"sources":[{"id":"GDACS","url":"https://www.gdacs.org/report.aspx?eventtype=WF&amp;eventid=1023691"}],"geometry":[{"magnitudeValue":null,"magnitudeUnit":null,"date":"2025-04-12T19:00:00Z","type":"Point","coordinates":[114.364293788309,52.3286703397713]}]},{"id":"EONET_13293","title":"Paur Fire Wildfire, Grand Forks, North Dakota","description":null,"link":"https://eonet.gsfc.nasa.gov/api/v3/events/EONET_13293","closed":null,"categories":[{"id":"wildfires","title":"Wildfires"}],"sources":[{"id":"IRWIN","url":"https://irwin.doi.gov/observer/"}],"geometry":[{"magnitudeValue":1800,"magnitudeUnit":"acres","date":"2025-04-12T16:03:00Z","type":"Point","coordinates":[-97.427717,48.063989]}]},{"id":"EONET_13295","title":"Maumee RX Wildfire, Jackson, Indiana","description":null,"link":"https://eonet.gsfc.nasa.gov/api/v3/events/EONET_13295","closed":null,"categories":[{"id":"wildfires","title":"Wildfires"}],"sources":[{"id":"IRWIN","url":"https://irwin.doi.gov/observer/"}],"geometry":[{"magnitudeValue":1793,"magnitudeUnit":"acres","date":"2025-04-12T15:17:00Z","type":"Point","coordinates":[-86.2852,39.0001]}]},{"id":"EONET_13298","title":"Homochitto BB18 South Sub 3 Rx Wildfire, Franklin, Mississippi","description":null,"link":"https://eonet.gsfc.nasa.gov/api/v3/events/EONET_13298","closed":null,"categories":[{"id":"wildfires","title":"Wildfires"}],"sources":[{"id":"IRWIN","url":"https://irwin.doi.gov/observer/"}],"geometry":[{"magnitudeValue":518,"magnitudeUnit":"acres","date":"2025-04-12T12:55:00Z","type":"Point","coordinates":[-90.88,31.396]}]},{"id":"EONET_13297","title":"Holly Springs IU 113 1 RX Wildfire, Lafayette, Mississippi","description":null,"link":"https://eonet.gsfc.nasa.gov/api/v3/events/EONET_13297","closed":null,"categories":[{"id":"wildfires","title":"Wildfires"}],"sources":[{"id":"IRWIN","url":"https://irwin.doi.gov/observer/"}],"geometry":[{"magnitudeValue":1156,"magnitudeUnit":"acres","date":"2025-04-12T09:37:00Z","type":"Point","coordinates":[-89.3648,34.3892]}]},{"id":"EONET_13294","title":"SHNF COMP 25 26 RX Wildfire, Walker, Texas","description":null,"link":"https://eonet.gsfc.nasa.gov/api/v3/events/EONET_13294","closed":null,"categories":[{"id":"wildfires","title":"Wildfires"}],"sources":[{"id":"IRWIN","url":"https://irwin.doi.gov/observer/"}],"geometry":[{"magnitudeValue":1994,"magnitudeUnit":"acres","date":"2025-04-12T09:26:00Z","type":"Point","coordinates":[-95.651967,30.57545]}]},{"id":"EONET_13296","title":"Chickasawhay CPT 352 RX Wildfire, Jones, Mississippi","description":null,"link":"https://eonet.gsfc.nasa.gov/api/v3/events/EONET_13296","closed":null,"categories":[{"id":"wildfires","title":"Wildfires"}],"sources":[{"id":"IRWIN","url":"https://irwin.doi.gov/observer/"}],"geometry":[{"magnitudeValue":1149,"magnitudeUnit":"acres","date":"2025-04-12T09:04:00Z","type":"Point","coordinates":[-88.9828,31.511]}]},{"id":"EONET_13208","title":"Wildfire in Chad 1023669","description":null,"link":"https://eonet.gsfc.nasa.gov/api/v3/events/EONET_13208","closed":null,"categories":[{"id":"wildfires","title":"Wildfires"}],"sources":[{"id":"GDACS","url":"https://www.gdacs.org/report.aspx?eventtype=WF&amp;eventid=1023669"}],"geometry":[{"magnitudeValue":null,"magnitudeUnit":null,"date":"2025-04-11T19:00:00Z","type":"Point","coordinates":[19.809023388189,14.9835307314126]}]},{"id":"EONET_13213","title":"Wildfire in Russian Federation 1023675","description":null,"link":"https://eonet.gsfc.nasa.gov/api/v3/events/EONET_13213","closed":null,"categories":[{"id":"wildfires","title":"Wildfires"}],"sources":[{"id":"GDACS","url":"https://www.gdacs.org/report.aspx?eventtype=WF&amp;eventid=1023675"}],"geometry":[{"magnitudeValue":null,"magnitudeUnit":null,"date":"2025-04-11T19:00:00Z","type":"Point","coordinates":[114.90851611457,52.9216467879329]}]},{"id":"EONET_13222","title":"Wildfire in Sudan 1023682","description":null,"link":"https://eonet.gsfc.nasa.gov/api/v3/events/EONET_13222","closed":null,"categories":[{"id":"wildfires","title":"Wildfires"}],"sources":[{"id":"GDACS","url":"https://www.gdacs.org/report.aspx?eventtype=WF&amp;eventid=1023682"}],"geometry":[{"magnitudeValue":null,"magnitudeUnit":null,"date":"2025-04-11T19:00:00Z","type":"Point","coordinates":[32.8072192786106,8.81165425112995]}]},{"id":"EONET_13303","title":"Rx San Jacinto 2077 Wildfire, San Jacinto, Texas","description":null,"link":"https://eonet.gsfc.nasa.gov/api/v3/events/EONET_13303","closed":null,"categories":[{"id":"wildfires","title":"Wildfires"}],"sources":[{"id":"IRWIN","url":"https://irwin.doi.gov/observer/"}],"geometry":[{"magnitudeValue":502,"magnitudeUnit":"acres","date":"2025-04-11T18:37:00Z","type":"Point","coordinates":[-95.285,30.83055556]}]},{"id":"EONET_13228","title":"Buffalo Wildfire, Dewey, South Dakota","description":"Dewey County, 2 miles NW of Marksville, SD","link":"https://eonet.gsfc.nasa.gov/api/v3/events/EONET_13228","closed":null,"categories":[{"id":"wildfires","title":"Wildfires"}],"sources":[{"id":"IRWIN","url":"https://irwin.doi.gov/observer/"}],"geometry":[{"magnitudeValue":611,"magnitudeUnit":"acres","date":"2025-04-11T17:43:00Z","type":"Point","coordinates":[-100.4047222,45.09388889]}]},{"id":"EONET_13415","title":"SPA RX - ELK DROP Wildfire, Stevens, Washington","description":null,"link":"https://eonet.gsfc.nasa.gov/api/v3/events/EONET_13415","closed":null,"categories":[{"id":"wildfires","title":"Wildfires"}],"sources":[{"id":"IRWIN","url":"https://irwin.doi.gov/observer/"}],"geometry":[{"magnitudeValue":538,"magnitudeUnit":"acres","date":"2025-04-11T13:58:00Z","type":"Point","coordinates":[-118.112957,47.911486]}]},{"id":"EONET_13299","title":"RX Ross Creek East Wildfire, Scott, Arkansas","description":null,"link":"https://eonet.gsfc.nasa.gov/api/v3/events/EONET_13299","closed":null,"categories":[{"id":"wildfires","title":"Wildfires"}],"sources":[{"id":"IRWIN","url":"https://irwin.doi.gov/observer/"}],"geometry":[{"magnitudeValue":3017,"magnitudeUnit":"acres","date":"2025-04-11T11:36:00Z","type":"Point","coordinates":[-94.112458,34.818835]}]},{"id":"EONET_13438","title":"San Pitch RX Wildfire, Sanpete, Utah","description":null,"link":"https://eonet.gsfc.nasa.gov/api/v3/events/EONET_13438","closed":null,"categories":[{"id":"wildfires","title":"Wildfires"}],"sources":[{"id":"IRWIN","url":"https://irwin.doi.gov/observer/"}],"geometry":[{"magnitudeValue":1068,"magnitudeUnit":"acres","date":"2025-04-11T11:11:00Z","type":"Point","coordinates":[-111.748036,39.359275]}]},{"id":"EONET_13307","title":"Homochitto BB 18 South Sub 2 3  RX Wildfire, Franklin, Mississippi","description":null,"link":"https://eonet.gsfc.nasa.gov/api/v3/events/EONET_13307","closed":null,"categories":[{"id":"wildfires","title":"Wildfires"}],"sources":[{"id":"IRWIN","url":"https://irwin.doi.gov/observer/"}],"geometry":[{"magnitudeValue":820,"magnitudeUnit":"acres","date":"2025-04-11T10:07:00Z","type":"Point","coordinates":[-90.872,31.382]}]},{"id":"EONET_13262","title":"Compartment 30 RX Wildfire, Bibb, Alabama","description":null,"link":"https://eonet.gsfc.nasa.gov/api/v3/events/EONET_13262","closed":null,"categories":[{"id":"wildfires","title":"Wildfires"}],"sources":[{"id":"IRWIN","url":"https://irwin.doi.gov/observer/"}],"geometry":[{"magnitudeValue":1940,"magnitudeUnit":"acres","date":"2025-04-11T10:02:00Z","type":"Point","coordinates":[-87.362417,32.950182]}]},{"id":"EONET_13300","title":"RX Eastern 1 S &amp; Camp Clearfork Wildfire, Garland, Arkansas","description":null,"link":"https://eonet.gsfc.nasa.gov/api/v3/events/EONET_13300","closed":null,"categories":[{"id":"wildfires","title":"Wildfires"}],"sources":[{"id":"IRWIN","url":"https://irwin.doi.gov/observer/"}],"geometry":[{"magnitudeValue":1208,"magnitudeUnit":"acres","date":"2025-04-11T09:56:00Z","type":"Point","coordinates":[-93.354167,34.514444]}]},{"id":"EONET_13301","title":"RX Walnut 12 Wildfire, Montgomery, Arkansas","description":null,"link":"https://eonet.gsfc.nasa.gov/api/v3/events/EONET_13301","closed":null,"categories":[{"id":"wildfires","title":"Wildfires"}],"sources":[{"id":"IRWIN","url":"https://irwin.doi.gov/observer/"}],"geometry":[{"magnitudeValue":778,"magnitudeUnit":"acres","date":"2025-04-11T09:47:00Z","type":"Point","coordinates":[-93.408333,34.518889]}]},{"id":"EONET_13311","title":"DCNF C. 39 RX Wildfire, Houston, Texas","description":null,"link":"https://eonet.gsfc.nasa.gov/api/v3/events/EONET_13311","closed":null,"categories":[{"id":"wildfires","title":"Wildfires"}],"sources":[{"id":"IRWIN","url":"https://irwin.doi.gov/observer/"}],"geometry":[{"magnitudeValue":2000,"magnitudeUnit":"acres","date":"2025-04-11T09:42:00Z","type":"Point","coordinates":[-95.271846,31.31223]}]},{"id":"EONET_13308","title":"RX CALV C-253-254-259 Wildfire, Vernon, Louisiana","description":null,"link":"https://eonet.gsfc.nasa.gov/api/v3/events/EONET_13308","closed":null,"categories":[{"id":"wildfires","title":"Wildfires"}],"sources":[{"id":"IRWIN","url":"https://irwin.doi.gov/observer/"}],"geometry":[{"magnitudeValue":2524,"magnitudeUnit":"acres","date":"2025-04-11T09:09:00Z","type":"Point","coordinates":[-93.153167,31.02545]}]},{"id":"EONET_13292","title":"rx-Pierce-Jacobson Flowage Wildfire, Walworth, Wisconsin","description":null,"link":"https://eonet.gsfc.nasa.gov/api/v3/events/EONET_13292","closed":null,"categories":[{"id":"wildfires","title":"Wildfires"}],"sources":[{"id":"IRWIN","url":"https://irwin.doi.gov/observer/"}],"geometry":[{"magnitudeValue":626,"magnitudeUnit":"acres","date":"2025-04-11T09:07:00Z","type":"Point","coordinates":[-88.6118306,42.7127671]}]},{"id":"EONET_13302","title":"RX Rock Creek Wildfire, Van Buren, Arkansas","description":null,"link":"https://eonet.gsfc.nasa.gov/api/v3/events/EONET_13302","closed":null,"categories":[{"id":"wildfires","title":"Wildfires"}],"sources":[{"id":"IRWIN","url":"https://irwin.doi.gov/observer/"}],"geometry":[{"magnitudeValue":975,"magnitudeUnit":"acres","date":"2025-04-11T09:02:00Z","type":"Point","coordinates":[-92.800228,35.463975]}]},{"id":"EONET_13304","title":"RX Whiskey Springs North Wildfire, Crawford, Arkansas","description":null,"link":"https://eonet.gsfc.nasa.gov/api/v3/events/EONET_13304","closed":null,"categories":[{"id":"wildfires","title":"Wildfires"}],"sources":[{"id":"IRWIN","url":"https://irwin.doi.gov/observer/"}],"geometry":[{"magnitudeValue":1459,"magnitudeUnit":"acres","date":"2025-04-11T08:36:00Z","type":"Point","coordinates":[-94.3625,35.7446]}]},{"id":"EONET_13305","title":"RX Bee Knob Wildfire, Yell, Arkansas","description":null,"link":"https://eonet.gsfc.nasa.gov/api/v3/events/EONET_13305","closed":null,"categories":[{"id":"wildfires","title":"Wildfires"}],"sources":[{"id":"IRWIN","url":"https://irwin.doi.gov/observer/"}],"geometry":[{"magnitudeValue":1383,"magnitudeUnit":"acres","date":"2025-04-11T08:35:00Z","type":"Point","coordinates":[-93.68,34.823056]}]},{"id":"EONET_13309","title":"Fishing Bay Wildfire, Dorchester, Maryland","description":"8 miles south of Vienna, MD (Fishing Bay Wildlife Management Area).","link":"https://eonet.gsfc.nasa.gov/api/v3/events/EONET_13309","closed":null,"categories":[{"id":"wildfires","title":"Wildfires"}],"sources":[{"id":"IRWIN","url":"https://irwin.doi.gov/observer/"}],"geometry":[{"magnitudeValue":1700,"magnitudeUnit":"acres","date":"2025-04-11T07:46:00Z","type":"Point","coordinates":[-75.98023,38.308702]}]},{"id":"EONET_13310","title":"Guinea Island Wildfire, Dorchester, Maryland","description":"6 miles North of Elliott Island MD (Fishing Bay Wildlife Management Area).","link":"https://eonet.gsfc.nasa.gov/api/v3/events/EONET_13310","closed":null,"categories":[{"id":"wildfires","title":"Wildfires"}],"sources":[{"id":"IRWIN","url":"https://irwin.doi.gov/observer/"}],"geometry":[{"magnitudeValue":1673,"magnitudeUnit":"acres","date":"2025-04-11T07:43:00Z","type":"Point","coordinates":[-75.990457,38.379849]}]},{"id":"EONET_6037","title":"Iceberg C38B","description":null,"link":"https://eonet.gsfc.nasa.gov/api/v3/events/EONET_6037","closed":null,"categories":[{"id":"seaLakeIce","title":"Sea and Lake Ice"}],"sources":[{"id":"NATICE","url":"https://usicecenter.gov/pub/Iceberg_Tabular.csv"}],"geometry":[{"magnitudeValue":56,"magnitudeUnit":"NM^2","date":"2022-03-25T00:00:00Z","type":"Point","coordinates":[101.72,-65.06]},{"magnitudeValue":35,"magnitudeUnit":"NM^2","date":"2023-06-02T00:00:00Z","type":"Point","coordinates":[99.93,-65.65]},{"magnitudeValue":56,"magnitudeUnit":"NM^2","date":"2023-07-07T00:00:00Z","type":"Point","coordinates":[99.11,-65.33]},{"magnitudeValue":35,"magnitudeUnit":"NM^2","date":"2023-07-28T00:00:00Z","type":"Point","coordinates":[99.93,-65.65]},{"magnitudeValue":56,"magnitudeUnit":"NM^2","date":"2023-08-04T00:00:00Z","type":"Point","coordinates":[99,-65.23]},{"magnitudeValue":56,"magnitudeUnit":"NM^2","date":"2023-12-28T00:00:00Z","type":"Point","coordinates":[98.67,-64.71]},{"magnitudeValue":56,"magnitudeUnit":"NM^2","date":"2024-02-08T00:00:00Z","type":"Point","coordinates":[97.78,-64.43]},{"magnitudeValue":56,"magnitudeUnit":"NM^2","date":"2024-03-01T00:00:00Z","type":"Point","coordinates":[92.22,-66.12]},{"magnitudeValue":56,"magnitudeUnit":"NM^2","date":"2025-04-11T00:00:00Z","type":"Point","coordinates":[90.96,-66.33]},{"magnitudeValue":56,"magnitudeUnit":"NM^2","date":"2025-04-24T00:00:00Z","type":"Point","coordinates":[88.4,-66.16]}]},{"id":"EONET_13314","title":"Continental Flare Fire Wildfire, McKenzie, North Dakota","description":null,"link":"https://eonet.gsfc.nasa.gov/api/v3/events/EONET_13314","closed":null,"categories":[{"id":"wildfires","title":"Wildfires"}],"sources":[{"id":"IRWIN","url":"https://irwin.doi.gov/observer/"}],"geometry":[{"magnitudeValue":2250,"magnitudeUnit":"acres","date":"2025-04-10T19:35:00Z","type":"Point","coordinates":[-103.29019,47.877953]}]},{"id":"EONET_13209","title":"Wildfire in Australia 1023670","description":null,"link":"https://eonet.gsfc.nasa.gov/api/v3/events/EONET_13209","closed":null,"categories":[{"id":"wildfires","title":"Wildfires"}],"sources":[{"id":"GDACS","url":"https://www.gdacs.org/report.aspx?eventtype=WF&amp;eventid=1023670"}],"geometry":[{"magnitudeValue":null,"magnitudeUnit":null,"date":"2025-04-10T19:00:00Z","type":"Point","coordinates":[122.948552450358,-22.8800150403171]}]},{"id":"EONET_13214","title":"Wildfire in Russian Federation 1023676","description":null,"link":"https://eonet.gsfc.nasa.gov/api/v3/events/EONET_13214","closed":null,"categories":[{"id":"wildfires","title":"Wildfires"}],"sources":[{"id":"GDACS","url":"https://www.gdacs.org/report.aspx?eventtype=WF&amp;eventid=1023676"}],"geometry":[{"magnitudeValue":null,"magnitudeUnit":null,"date":"2025-04-10T19:00:00Z","type":"Point","coordinates":[114.875915237827,52.7984983333058]}]},{"id":"EONET_13221","title":"Wildfire in Russian Federation 1023681","description":null,"link":"https://eonet.gsfc.nasa.gov/api/v3/events/EONET_13221","closed":null,"categories":[{"id":"wildfires","title":"Wildfires"}],"sources":[{"id":"GDACS","url":"https://www.gdacs.org/report.aspx?eventtype=WF&amp;eventid=1023681"}],"geometry":[{"magnitudeValue":null,"magnitudeUnit":null,"date":"2025-04-10T19:00:00Z","type":"Point","coordinates":[112.132064050442,52.713422336514]}]},{"id":"EONET_13223","title":"Wildfire in Russian Federation 1023683","description":null,"link":"https://eonet.gsfc.nasa.gov/api/v3/events/EONET_13223","closed":null,"categories":[{"id":"wildfires","title":"Wildfires"}],"sources":[{"id":"GDACS","url":"https://www.gdacs.org/report.aspx?eventtype=WF&amp;eventid=1023683"}],"geometry":[{"magnitudeValue":null,"magnitudeUnit":null,"date":"2025-04-10T19:00:00Z","type":"Point","coordinates":[117.815509131505,53.1499743182729]}]},{"id":"EONET_13337","title":"Wildfire in Russian Federation 1023692","description":null,"link":"https://eonet.gsfc.nasa.gov/api/v3/events/EONET_13337","closed":null,"categories":[{"id":"wildfires","title":"Wildfires"}],"sources":[{"id":"GDACS","url":"https://www.gdacs.org/report.aspx?eventtype=WF&amp;eventid=1023692"}],"geometry":[{"magnitudeValue":null,"magnitudeUnit":null,"date":"2025-04-10T19:00:00Z","type":"Point","coordinates":[115.687264534383,52.9503408324692]}]},{"id":"EONET_13338","title":"Wildfire in Russian Federation 1023693","description":null,"link":"https://eonet.gsfc.nasa.gov/api/v3/events/EONET_13338","closed":null,"categories":[{"id":"wildfires","title":"Wildfires"}],"sources":[{"id":"GDACS","url":"https://www.gdacs.org/report.aspx?eventtype=WF&amp;eventid=1023693"}],"geometry":[{"magnitudeValue":null,"magnitudeUnit":null,"date":"2025-04-10T19:00:00Z","type":"Point","coordinates":[115.646717084947,53.0993302492837]}]},{"id":"EONET_13272","title":"rx-80 Wildfire, Burnett, Wisconsin","description":null,"link":"https://eonet.gsfc.nasa.gov/api/v3/events/EONET_13272","closed":null,"categories":[{"id":"wildfires","title":"Wildfires"}],"sources":[{"id":"IRWIN","url":"https://irwin.doi.gov/observer/"}],"geometry":[{"magnitudeValue":532.6,"magnitudeUnit":"acres","date":"2025-04-10T12:35:00Z","type":"Point","coordinates":[-92.6207464,45.8902911]}]},{"id":"EONET_13325","title":"RX Little Creek Wildfire, Franklin, Arkansas","description":null,"link":"https://eonet.gsfc.nasa.gov/api/v3/events/EONET_13325","closed":null,"categories":[{"id":"wildfires","title":"Wildfires"}],"sources":[{"id":"IRWIN","url":"https://irwin.doi.gov/observer/"}],"geometry":[{"magnitudeValue":1241,"magnitudeUnit":"acres","date":"2025-04-10T11:31:00Z","type":"Point","coordinates":[-94.0267,35.608]}]},{"id":"EONET_13321","title":"Tombigbee IU 40s RX Wildfire, Choctaw, Mississippi","description":null,"link":"https://eonet.gsfc.nasa.gov/api/v3/events/EONET_13321","closed":null,"categories":[{"id":"wildfires","title":"Wildfires"}],"sources":[{"id":"IRWIN","url":"https://irwin.doi.gov/observer/"}],"geometry":[{"magnitudeValue":1600,"magnitudeUnit":"acres","date":"2025-04-10T10:34:00Z","type":"Point","coordinates":[-89.1026,33.2916]}]},{"id":"EONET_13313","title":"RX CAT C-13-14 Wildfire, Grant, Louisiana","description":null,"link":"https://eonet.gsfc.nasa.gov/api/v3/events/EONET_13313","closed":null,"categories":[{"id":"wildfires","title":"Wildfires"}],"sources":[{"id":"IRWIN","url":"https://irwin.doi.gov/observer/"}],"geometry":[{"magnitudeValue":2129,"magnitudeUnit":"acres","date":"2025-04-10T09:50:00Z","type":"Point","coordinates":[-92.563586,31.715663]}]},{"id":"EONET_13277","title":"Compartment 21 RX Wildfire, Hale, Alabama","description":null,"link":"https://eonet.gsfc.nasa.gov/api/v3/events/EONET_13277","closed":null,"categories":[{"id":"wildfires","title":"Wildfires"}],"sources":[{"id":"IRWIN","url":"https://irwin.doi.gov/observer/"}],"geometry":[{"magnitudeValue":1080,"magnitudeUnit":"acres","date":"2025-04-10T09:41:00Z","type":"Point","coordinates":[-87.489495,32.968973]}]},{"id":"EONET_13315","title":"RX Smokey Hollow 1 &amp; Smokey Hollow 1 West Wildfire, Montgomery, Arkansas","description":null,"link":"https://eonet.gsfc.nasa.gov/api/v3/events/EONET_13315","closed":null,"categories":[{"id":"wildfires","title":"Wildfires"}],"sources":[{"id":"IRWIN","url":"https://irwin.doi.gov/observer/"}],"geometry":[{"magnitudeValue":2211,"magnitudeUnit":"acres","date":"2025-04-10T09:26:00Z","type":"Point","coordinates":[-93.63,34.4725]}]},{"id":"EONET_13312","title":"SNF Curry Creek E. C. 120 RX Wildfire, Sabine, Texas","description":null,"link":"https://eonet.gsfc.nasa.gov/api/v3/events/EONET_13312","closed":null,"categories":[{"id":"wildfires","title":"Wildfires"}],"sources":[{"id":"IRWIN","url":"https://irwin.doi.gov/observer/"}],"geometry":[{"magnitudeValue":1312,"magnitudeUnit":"acres","date":"2025-04-10T09:24:00Z","type":"Point","coordinates":[-93.914,31.219667]}]},{"id":"EONET_13320","title":"RX Alamo 20 Wildfire, Montgomery, Arkansas","description":null,"link":"https://eonet.gsfc.nasa.gov/api/v3/events/EONET_13320","closed":null,"categories":[{"id":"wildfires","title":"Wildfires"}],"sources":[{"id":"IRWIN","url":"https://irwin.doi.gov/observer/"}],"geometry":[{"magnitudeValue":1584,"magnitudeUnit":"acres","date":"2025-04-10T09:23:00Z","type":"Point","coordinates":[-93.437222,34.485]}]},{"id":"EONET_13323","title":"Homochitto BB 31 Sub 2 RX Wildfire, Amite, Mississippi","description":null,"link":"https://eonet.gsfc.nasa.gov/api/v3/events/EONET_13323","closed":null,"categories":[{"id":"wildfires","title":"Wildfires"}],"sources":[{"id":"IRWIN","url":"https://irwin.doi.gov/observer/"}],"geometry":[{"magnitudeValue":504,"magnitudeUnit":"acres","date":"2025-04-10T09:16:00Z","type":"Point","coordinates":[-91.024,31.309]}]},{"id":"EONET_13319","title":"Chickasawhay CPT 374 376 RX Wildfire, Wayne, Mississippi","description":null,"link":"https://eonet.gsfc.nasa.gov/api/v3/events/EONET_13319","closed":null,"categories":[{"id":"wildfires","title":"Wildfires"}],"sources":[{"id":"IRWIN","url":"https://irwin.doi.gov/observer/"}],"geometry":[{"magnitudeValue":1690,"magnitudeUnit":"acres","date":"2025-04-10T09:12:00Z","type":"Point","coordinates":[-88.9256,31.5518]}]},{"id":"EONET_13318","title":"RX Wildcat West /  Norris Wildfire, Yell, Arkansas","description":null,"link":"https://eonet.gsfc.nasa.gov/api/v3/events/EONET_13318","closed":null,"categories":[{"id":"wildfires","title":"Wildfires"}],"sources":[{"id":"IRWIN","url":"https://irwin.doi.gov/observer/"}],"geometry":[{"magnitudeValue":2789,"magnitudeUnit":"acres","date":"2025-04-10T09:08:00Z","type":"Point","coordinates":[-93.527583,34.8665]}]},{"id":"EONET_13324","title":"RX CALV C-256 E Wildfire, Vernon, Louisiana","description":null,"link":"https://eonet.gsfc.nasa.gov/api/v3/events/EONET_13324","closed":null,"categories":[{"id":"wildfires","title":"Wildfires"}],"sources":[{"id":"IRWIN","url":"https://irwin.doi.gov/observer/"}],"geometry":[{"magnitudeValue":690,"magnitudeUnit":"acres","date":"2025-04-10T09:08:00Z","type":"Point","coordinates":[-93.185517,31.019883]}]},{"id":"EONET_13316","title":"RX Pilot/Round Mountain Wildfire, Scott, Arkansas","description":null,"link":"https://eonet.gsfc.nasa.gov/api/v3/events/EONET_13316","closed":null,"categories":[{"id":"wildfires","title":"Wildfires"}],"sources":[{"id":"IRWIN","url":"https://irwin.doi.gov/observer/"}],"geometry":[{"magnitudeValue":5084,"magnitudeUnit":"acres","date":"2025-04-10T09:03:00Z","type":"Point","coordinates":[-94.072071,34.793871]}]},{"id":"EONET_13317","title":"RX Speck Hollow Wildfire, Polk, Arkansas","description":null,"link":"https://eonet.gsfc.nasa.gov/api/v3/events/EONET_13317","closed":null,"categories":[{"id":"wildfires","title":"Wildfires"}],"sources":[{"id":"IRWIN","url":"https://irwin.doi.gov/observer/"}],"geometry":[{"magnitudeValue":867,"magnitudeUnit":"acres","date":"2025-04-10T09:00:00Z","type":"Point","coordinates":[-94.245833,34.428333]}]},{"id":"EONET_13306","title":"APQ Rec Area 7 RX 0410 Wildfire, Polk, Florida","description":null,"link":"https://eonet.gsfc.nasa.gov/api/v3/events/EONET_13306","closed":null,"categories":[{"id":"wildfires","title":"Wildfires"}],"sources":[{"id":"IRWIN","url":"https://irwin.doi.gov/observer/"}],"geometry":[{"magnitudeValue":955,"magnitudeUnit":"acres","date":"2025-04-10T08:28:00Z","type":"Point","coordinates":[-81.280632,27.645975]}]},{"id":"EONET_13342","title":"Popocatepetl Volcano, Mexico","description":null,"link":"https://eonet.gsfc.nasa.gov/api/v3/events/EONET_13342","closed":null,"categories":[{"id":"volcanoes","title":"Volcanoes"}],"sources":[{"id":"SIVolcano","url":"https://volcano.si.edu/volcano.cfm?vn=341090"}],"geometry":[{"magnitudeValue":null,"magnitudeUnit":null,"date":"2025-04-10T00:00:00Z","type":"Point","coordinates":[-98.622,19.023]}]},{"id":"EONET_13243","title":"Dugdale Wildfire, Polk, Minnesota","description":"7 miles SW of Mentor, MN","link":"https://eonet.gsfc.nasa.gov/api/v3/events/EONET_13243","closed":null,"categories":[{"id":"wildfires","title":"Wildfires"}],"sources":[{"id":"IRWIN","url":"https://irwin.doi.gov/observer/"}],"geometry":[{"magnitudeValue":3744,"magnitudeUnit":"acres","date":"2025-04-09T19:06:00Z","type":"Point","coordinates":[-96.276928,47.694694]}]},{"id":"EONET_13215","title":"Wildfire in Russian Federation 1023672","description":null,"link":"https://eonet.gsfc.nasa.gov/api/v3/events/EONET_13215","closed":null,"categories":[{"id":"wildfires","title":"Wildfires"}],"sources":[{"id":"GDACS","url":"https://www.gdacs.org/report.aspx?eventtype=WF&amp;eventid=1023672"}],"geometry":[{"magnitudeValue":null,"magnitudeUnit":null,"date":"2025-04-09T19:00:00Z","type":"Point","coordinates":[114.971969616016,52.4913067773503]}]},{"id":"EONET_13216","title":"Wildfire in Russian Federation 1023677","description":null,"link":"https://eonet.gsfc.nasa.gov/api/v3/events/EONET_13216","closed":null,"categories":[{"id":"wildfires","title":"Wildfires"}],"sources":[{"id":"GDACS","url":"https://www.gdacs.org/report.aspx?eventtype=WF&amp;eventid=1023677"}],"geometry":[{"magnitudeValue":null,"magnitudeUnit":null,"date":"2025-04-09T19:00:00Z","type":"Point","coordinates":[114.957917740751,52.7266876193243]}]},{"id":"EONET_13217","title":"Wildfire in Russian Federation 1023678","description":null,"link":"https://eonet.gsfc.nasa.gov/api/v3/events/EONET_13217","closed":null,"categories":[{"id":"wildfires","title":"Wildfires"}],"sources":[{"id":"GDACS","url":"https://www.gdacs.org/report.aspx?eventtype=WF&amp;eventid=1023678"}],"geometry":[{"magnitudeValue":null,"magnitudeUnit":null,"date":"2025-04-09T19:00:00Z","type":"Point","coordinates":[115.137530291992,52.7900869231286]}]},{"id":"EONET_13334","title":"Wildfire in Russian Federation 1023689","description":null,"link":"https://eonet.gsfc.nasa.gov/api/v3/events/EONET_13334","closed":null,"categories":[{"id":"wildfires","title":"Wildfires"}],"sources":[{"id":"GDACS","url":"https://www.gdacs.org/report.aspx?eventtype=WF&amp;eventid=1023689"}],"geometry":[{"magnitudeValue":null,"magnitudeUnit":null,"date":"2025-04-09T19:00:00Z","type":"Point","coordinates":[115.848376148801,52.9978139689219]}]},{"id":"EONET_13339","title":"Wildfire in Mexico 1023694","description":null,"link":"https://eonet.gsfc.nasa.gov/api/v3/events/EONET_13339","closed":null,"categories":[{"id":"wildfires","title":"Wildfires"}],"sources":[{"id":"GDACS","url":"https://www.gdacs.org/report.aspx?eventtype=WF&amp;eventid=1023694"}],"geometry":[{"magnitudeValue":null,"magnitudeUnit":null,"date":"2025-04-09T19:00:00Z","type":"Point","coordinates":[-106.251404592824,24.1493997522012]}]},{"id":"EONET_13174","title":"East Kennedy Creek Wildfire, Coffey, Kansas","description":null,"link":"https://eonet.gsfc.nasa.gov/api/v3/events/EONET_13174","closed":null,"categories":[{"id":"wildfires","title":"Wildfires"}],"sources":[{"id":"IRWIN","url":"https://irwin.doi.gov/observer/"}],"geometry":[{"magnitudeValue":960,"magnitudeUnit":"acres","date":"2025-04-09T12:20:00Z","type":"Point","coordinates":[-95.821678,38.284253]}]},{"id":"EONET_13248","title":"Salina Canyon East Rx Wildfire, Sevier, Utah","description":null,"link":"https://eonet.gsfc.nasa.gov/api/v3/events/EONET_13248","closed":null,"categories":[{"id":"wildfires","title":"Wildfires"}],"sources":[{"id":"IRWIN","url":"https://irwin.doi.gov/observer/"}],"geometry":[{"magnitudeValue":2110,"magnitudeUnit":"acres","date":"2025-04-09T12:09:00Z","type":"Point","coordinates":[-111.438133,38.840033]}]},{"id":"EONET_13327","title":"RX Buffalo East Wildfire, Scott, Arkansas","description":null,"link":"https://eonet.gsfc.nasa.gov/api/v3/events/EONET_13327","closed":null,"categories":[{"id":"wildfires","title":"Wildfires"}],"sources":[{"id":"IRWIN","url":"https://irwin.doi.gov/observer/"}],"geometry":[{"magnitudeValue":1121,"magnitudeUnit":"acres","date":"2025-04-09T10:45:00Z","type":"Point","coordinates":[-94.072071,34.793871]}]},{"id":"EONET_13329","title":"HollySprings IU 51 Sub 1 RX Wildfire, Benton, Mississippi","description":null,"link":"https://eonet.gsfc.nasa.gov/api/v3/events/EONET_13329","closed":null,"categories":[{"id":"wildfires","title":"Wildfires"}],"sources":[{"id":"IRWIN","url":"https://irwin.doi.gov/observer/"}],"geometry":[{"magnitudeValue":1196,"magnitudeUnit":"acres","date":"2025-04-09T10:37:00Z","type":"Point","coordinates":[-89.1319,34.6799]}]},{"id":"EONET_13402","title":"RX Liberty 1/2 Wildfire, Logan, Arkansas","description":null,"link":"https://eonet.gsfc.nasa.gov/api/v3/events/EONET_13402","closed":null,"categories":[{"id":"wildfires","title":"Wildfires"}],"sources":[{"id":"IRWIN","url":"https://irwin.doi.gov/observer/"}],"geometry":[{"magnitudeValue":1596,"magnitudeUnit":"acres","date":"2025-04-09T10:32:00Z","type":"Point","coordinates":[-93.5204,35.2178]}]},{"id":"EONET_13176","title":"SHNF C. 09 RX Wildfire, Liberty, Texas","description":null,"link":"https://eonet.gsfc.nasa.gov/api/v3/events/EONET_13176","closed":null,"categories":[{"id":"wildfires","title":"Wildfires"}],"sources":[{"id":"IRWIN","url":"https://irwin.doi.gov/observer/"}],"geometry":[{"magnitudeValue":1290,"magnitudeUnit":"acres","date":"2025-04-09T10:30:00Z","type":"Point","coordinates":[-95,30]}]},{"id":"EONET_13331","title":"Homochitto BB 29 Sub 2 3 RX Wildfire, Amite, Mississippi","description":null,"link":"https://eonet.gsfc.nasa.gov/api/v3/events/EONET_13331","closed":null,"categories":[{"id":"wildfires","title":"Wildfires"}],"sources":[{"id":"IRWIN","url":"https://irwin.doi.gov/observer/"}],"geometry":[{"magnitudeValue":785,"magnitudeUnit":"acres","date":"2025-04-09T10:08:00Z","type":"Point","coordinates":[-90.982,31.266]}]},{"id":"EONET_13326","title":"Unit 25B RX Wildfire, Sherburne, Minnesota","description":null,"link":"https://eonet.gsfc.nasa.gov/api/v3/events/EONET_13326","closed":null,"categories":[{"id":"wildfires","title":"Wildfires"}],"sources":[{"id":"IRWIN","url":"https://irwin.doi.gov/observer/"}],"geometry":[{"magnitudeValue":554,"magnitudeUnit":"acres","date":"2025-04-09T09:50:00Z","type":"Point","coordinates":[-93.694633,45.471467]}]},{"id":"EONET_13322","title":"RX LSF 12 LSF 13 South Mount Ida 17 19 Wildfire, Montgomery, Arkansas","description":null,"link":"https://eonet.gsfc.nasa.gov/api/v3/events/EONET_13322","closed":null,"categories":[{"id":"wildfires","title":"Wildfires"}],"sources":[{"id":"IRWIN","url":"https://irwin.doi.gov/observer/"}],"geometry":[{"magnitudeValue":2838,"magnitudeUnit":"acres","date":"2025-04-09T09:15:00Z","type":"Point","coordinates":[-93.586667,34.6025]}]},{"id":"EONET_13328","title":"RX HWY 27 Divide &amp; Little Fir Wildfire, Montgomery, Arkansas","description":null,"link":"https://eonet.gsfc.nasa.gov/api/v3/events/EONET_13328","closed":null,"categories":[{"id":"wildfires","title":"Wildfires"}],"sources":[{"id":"IRWIN","url":"https://irwin.doi.gov/observer/"}],"geometry":[{"magnitudeValue":832,"magnitudeUnit":"acres","date":"2025-04-09T09:13:00Z","type":"Point","coordinates":[-93.566389,34.596389]}]},{"id":"EONET_13330","title":"Bienville CPT 19 21 RX Wildfire, Scott, Mississippi","description":null,"link":"https://eonet.gsfc.nasa.gov/api/v3/events/EONET_13330","closed":null,"categories":[{"id":"wildfires","title":"Wildfires"}],"sources":[{"id":"IRWIN","url":"https://irwin.doi.gov/observer/"}],"geometry":[{"magnitudeValue":1628,"magnitudeUnit":"acres","date":"2025-04-09T08:44:00Z","type":"Point","coordinates":[-89.5998,32.4388]}]},{"id":"EONET_13412","title":"Hone Quarry Rx Wildfire, Rockingham, Virginia","description":null,"link":"https://eonet.gsfc.nasa.gov/api/v3/events/EONET_13412","closed":null,"categories":[{"id":"wildfires","title":"Wildfires"}],"sources":[{"id":"IRWIN","url":"https://irwin.doi.gov/observer/"}],"geometry":[{"magnitudeValue":1632,"magnitudeUnit":"acres","date":"2025-04-09T07:49:00Z","type":"Point","coordinates":[-79.197467,38.478033]}]},{"id":"EONET_13340","title":"Klyuchevskoy Volcano, Russia","description":null,"link":"https://eonet.gsfc.nasa.gov/api/v3/events/EONET_13340","closed":null,"categories":[{"id":"volcanoes","title":"Volcanoes"}],"sources":[{"id":"SIVolcano","url":"https://volcano.si.edu/volcano.cfm?vn=300260"}],"geometry":[{"magnitudeValue":null,"magnitudeUnit":null,"date":"2025-04-09T00:00:00Z","type":"Point","coordinates":[160.642,56.056]}]},{"id":"EONET_13341","title":"Poas Volcano, Costa Rica","description":null,"link":"https://eonet.gsfc.nasa.gov/api/v3/events/EONET_13341","closed":null,"categories":[{"id":"volcanoes","title":"Volcanoes"}],"sources":[{"id":"SIVolcano","url":"https://volcano.si.edu/volcano.cfm?vn=345040"}],"geometry":[{"magnitudeValue":null,"magnitudeUnit":null,"date":"2025-04-09T00:00:00Z","type":"Point","coordinates":[-84.233,10.2]}]},{"id":"EONET_13421","title":"DTAW Oklahoma Rx Wildfire, Southeast Fairbanks, Alaska","description":null,"link":"https://eonet.gsfc.nasa.gov/api/v3/events/EONET_13421","closed":null,"categories":[{"id":"wildfires","title":"Wildfires"}],"sources":[{"id":"IRWIN","url":"https://irwin.doi.gov/observer/"}],"geometry":[{"magnitudeValue":15000,"magnitudeUnit":"acres","date":"2025-04-08T19:17:00Z","type":"Point","coordinates":[-146.3023,64.00716]}]},{"id":"EONET_13204","title":"Wildfire in Australia 1023668","description":null,"link":"https://eonet.gsfc.nasa.gov/api/v3/events/EONET_13204","closed":null,"categories":[{"id":"wildfires","title":"Wildfires"}],"sources":[{"id":"GDACS","url":"https://www.gdacs.org/report.aspx?eventtype=WF&amp;eventid=1023668"}],"geometry":[{"magnitudeValue":null,"magnitudeUnit":null,"date":"2025-04-08T19:00:00Z","type":"Point","coordinates":[150.781678142185,-27.8269539349999]}]},{"id":"EONET_13218","title":"Wildfire in Russian Federation 1023679","description":null,"link":"https://eonet.gsfc.nasa.gov/api/v3/events/EONET_13218","closed":null,"categories":[{"id":"wildfires","title":"Wildfires"}],"sources":[{"id":"GDACS","url":"https://www.gdacs.org/report.aspx?eventtype=WF&amp;eventid=1023679"}],"geometry":[{"magnitudeValue":null,"magnitudeUnit":null,"date":"2025-04-08T19:00:00Z","type":"Point","coordinates":[114.742660107819,52.7019499103798]}]},{"id":"EONET_13406","title":"DTAE Jarvis Rx Wildfire, Southeast Fairbanks, Alaska","description":null,"link":"https://eonet.gsfc.nasa.gov/api/v3/events/EONET_13406","closed":null,"categories":[{"id":"wildfires","title":"Wildfires"}],"sources":[{"id":"IRWIN","url":"https://irwin.doi.gov/observer/"}],"geometry":[{"magnitudeValue":1339.7,"magnitudeUnit":"acres","date":"2025-04-08T18:54:00Z","type":"Point","coordinates":[-145.6726,63.98684]}]},{"id":"EONET_13431","title":"DTAE Bolio Rx Wildfire, Southeast Fairbanks, Alaska","description":null,"link":"https://eonet.gsfc.nasa.gov/api/v3/events/EONET_13431","closed":null,"categories":[{"id":"wildfires","title":"Wildfires"}],"sources":[{"id":"IRWIN","url":"https://irwin.doi.gov/observer/"}],"geometry":[{"magnitudeValue":2075,"magnitudeUnit":"acres","date":"2025-04-08T18:49:00Z","type":"Point","coordinates":[-145.9018,63.86224]}]},{"id":"EONET_13178","title":"Oil Well Rd Fire Wildfire, Conecuh, Alabama","description":"Oil Well Road","link":"https://eonet.gsfc.nasa.gov/api/v3/events/EONET_13178","closed":null,"categories":[{"id":"wildfires","title":"Wildfires"}],"sources":[{"id":"IRWIN","url":"https://irwin.doi.gov/observer/"}],"geometry":[{"magnitudeValue":640,"magnitudeUnit":"acres","date":"2025-04-08T18:04:00Z","type":"Point","coordinates":[-86.87,31.325]}]},{"id":"EONET_13173","title":"Chester Dry Hole Rx Wildfire, Lyman, South Dakota","description":null,"link":"https://eonet.gsfc.nasa.gov/api/v3/events/EONET_13173","closed":null,"categories":[{"id":"wildfires","title":"Wildfires"}],"sources":[{"id":"IRWIN","url":"https://irwin.doi.gov/observer/"}],"geometry":[{"magnitudeValue":502,"magnitudeUnit":"acres","date":"2025-04-08T10:58:00Z","type":"Point","coordinates":[-100.3325,44.0295]}]},{"id":"EONET_13171","title":"Wildfire in Australia 1023665","description":null,"link":"https://eonet.gsfc.nasa.gov/api/v3/events/EONET_13171","closed":null,"categories":[{"id":"wildfires","title":"Wildfires"}],"sources":[{"id":"GDACS","url":"https://www.gdacs.org/report.aspx?eventtype=WF&amp;eventid=1023665"}],"geometry":[{"magnitudeValue":null,"magnitudeUnit":null,"date":"2025-04-07T19:00:00Z","type":"Point","coordinates":[126.262432441644,-18.3131529500492]}]},{"id":"EONET_13205","title":"Wildfire in Australia 1023666","description":null,"link":"https://eonet.gsfc.nasa.gov/api/v3/events/EONET_13205","closed":null,"categories":[{"id":"wildfires","title":"Wildfires"}],"sources":[{"id":"GDACS","url":"https://www.gdacs.org/report.aspx?eventtype=WF&amp;eventid=1023666"}],"geometry":[{"magnitudeValue":null,"magnitudeUnit":null,"date":"2025-04-07T19:00:00Z","type":"Point","coordinates":[128.006002879419,-17.8763261079992]}]},{"id":"EONET_13210","title":"Wildfire in Russian Federation 1023671","description":null,"link":"https://eonet.gsfc.nasa.gov/api/v3/events/EONET_13210","closed":null,"categories":[{"id":"wildfires","title":"Wildfires"}],"sources":[{"id":"GDACS","url":"https://www.gdacs.org/report.aspx?eventtype=WF&amp;eventid=1023671"}],"geometry":[{"magnitudeValue":null,"magnitudeUnit":null,"date":"2025-04-07T19:00:00Z","type":"Point","coordinates":[115.335332453223,52.9284270603421]}]},{"id":"EONET_13177","title":"US 160 Wildfire, Las Animas, Colorado","description":"13 miles east of Kim, CO","link":"https://eonet.gsfc.nasa.gov/api/v3/events/EONET_13177","closed":null,"categories":[{"id":"wildfires","title":"Wildfires"}],"sources":[{"id":"IRWIN","url":"https://irwin.doi.gov/observer/"}],"geometry":[{"magnitudeValue":2270,"magnitudeUnit":"acres","date":"2025-04-07T15:49:00Z","type":"Point","coordinates":[-103.116078,37.279192]}]},{"id":"EONET_13427","title":"Brushy Mountain Unit 1 RX Wildfire, Greenbrier, West Virginia","description":null,"link":"https://eonet.gsfc.nasa.gov/api/v3/events/EONET_13427","closed":null,"categories":[{"id":"wildfires","title":"Wildfires"}],"sources":[{"id":"IRWIN","url":"https://irwin.doi.gov/observer/"}],"geometry":[{"magnitudeValue":640,"magnitudeUnit":"acres","date":"2025-04-07T15:44:00Z","type":"Point","coordinates":[-80.223591,37.8524]}]},{"id":"EONET_13180","title":"JPEC SFWA RX Wildfire, Cass, Illinois","description":null,"link":"https://eonet.gsfc.nasa.gov/api/v3/events/EONET_13180","closed":null,"categories":[{"id":"wildfires","title":"Wildfires"}],"sources":[{"id":"IRWIN","url":"https://irwin.doi.gov/observer/"}],"geometry":[{"magnitudeValue":1400,"magnitudeUnit":"acres","date":"2025-04-07T09:49:00Z","type":"Point","coordinates":[-90.0714,40.00148]}]},{"id":"EONET_13344","title":"Ulawun Volcano, Papua New Guinea","description":null,"link":"https://eonet.gsfc.nasa.gov/api/v3/events/EONET_13344","closed":null,"categories":[{"id":"volcanoes","title":"Volcanoes"}],"sources":[{"id":"SIVolcano","url":"https://volcano.si.edu/volcano.cfm?vn=252120"}],"geometry":[{"magnitudeValue":null,"magnitudeUnit":null,"date":"2025-04-07T00:00:00Z","type":"Point","coordinates":[151.33,-5.05]}]},{"id":"EONET_13168","title":"Wildfire in Australia 1023662","description":null,"link":"https://eonet.gsfc.nasa.gov/api/v3/events/EONET_13168","closed":null,"categories":[{"id":"wildfires","title":"Wildfires"}],"sources":[{"id":"GDACS","url":"https://www.gdacs.org/report.aspx?eventtype=WF&amp;eventid=1023662"}],"geometry":[{"magnitudeValue":null,"magnitudeUnit":null,"date":"2025-04-06T19:00:00Z","type":"Point","coordinates":[150.573033106739,-27.937221640087]}]},{"id":"EONET_13206","title":"Wildfire in Australia 1023667","description":null,"link":"https://eonet.gsfc.nasa.gov/api/v3/events/EONET_13206","closed":null,"categories":[{"id":"wildfires","title":"Wildfires"}],"sources":[{"id":"GDACS","url":"https://www.gdacs.org/report.aspx?eventtype=WF&amp;eventid=1023667"}],"geometry":[{"magnitudeValue":null,"magnitudeUnit":null,"date":"2025-04-06T19:00:00Z","type":"Point","coordinates":[128.125590359755,-19.8205367530768]}]},{"id":"EONET_13226","title":"Wildfire in Mexico 1023686","description":null,"link":"https://eonet.gsfc.nasa.gov/api/v3/events/EONET_13226","closed":null,"categories":[{"id":"wildfires","title":"Wildfires"}],"sources":[{"id":"GDACS","url":"https://www.gdacs.org/report.aspx?eventtype=WF&amp;eventid=1023686"}],"geometry":[{"magnitudeValue":null,"magnitudeUnit":null,"date":"2025-04-06T19:00:00Z","type":"Point","coordinates":[-107.116147245072,25.1703513012255]}]},{"id":"EONET_13411","title":"RX Piedmont 4C/12A/13E/13W Wildfire, Jasper, Georgia","description":null,"link":"https://eonet.gsfc.nasa.gov/api/v3/events/EONET_13411","closed":null,"categories":[{"id":"wildfires","title":"Wildfires"}],"sources":[{"id":"IRWIN","url":"https://irwin.doi.gov/observer/"}],"geometry":[{"magnitudeValue":1265,"magnitudeUnit":"acres","date":"2025-04-05T10:32:00Z","type":"Point","coordinates":[-83.7743,33.1403]}]},{"id":"EONET_13167","title":"Wildfire in Kazakhstan 1023661","description":null,"link":"https://eonet.gsfc.nasa.gov/api/v3/events/EONET_13167","closed":null,"categories":[{"id":"wildfires","title":"Wildfires"}],"sources":[{"id":"GDACS","url":"https://www.gdacs.org/report.aspx?eventtype=WF&amp;eventid=1023661"}],"geometry":[{"magnitudeValue":null,"magnitudeUnit":null,"date":"2025-04-04T19:00:00Z","type":"Point","coordinates":[63.2163692918688,52.3687342574348]}]},{"id":"EONET_13183","title":"25 BP6 BP7 BIL RX Wildfire, Chase, Kansas","description":null,"link":"https://eonet.gsfc.nasa.gov/api/v3/events/EONET_13183","closed":null,"categories":[{"id":"wildfires","title":"Wildfires"}],"sources":[{"id":"IRWIN","url":"https://irwin.doi.gov/observer/"}],"geometry":[{"magnitudeValue":1070,"magnitudeUnit":"acres","date":"2025-04-04T15:54:00Z","type":"Point","coordinates":[-96.5575,38.4325]}]},{"id":"EONET_13182","title":"KSQUR 12B/RenoCounty RX Wildfire, Stafford, Kansas","description":null,"link":"https://eonet.gsfc.nasa.gov/api/v3/events/EONET_13182","closed":null,"categories":[{"id":"wildfires","title":"Wildfires"}],"sources":[{"id":"IRWIN","url":"https://irwin.doi.gov/observer/"}],"geometry":[{"magnitudeValue":1700,"magnitudeUnit":"acres","date":"2025-04-04T15:15:00Z","type":"Point","coordinates":[-98.475833,38.135833]}]},{"id":"EONET_13169","title":"Wildfire in Russian Federation 1023663","description":null,"link":"https://eonet.gsfc.nasa.gov/api/v3/events/EONET_13169","closed":null,"categories":[{"id":"wildfires","title":"Wildfires"}],"sources":[{"id":"GDACS","url":"https://www.gdacs.org/report.aspx?eventtype=WF&amp;eventid=1023663"}],"geometry":[{"magnitudeValue":null,"magnitudeUnit":null,"date":"2025-04-03T19:00:00Z","type":"Point","coordinates":[111.742555913111,52.4636699831734]}]},{"id":"EONET_13170","title":"Wildfire in Russian Federation 1023664","description":null,"link":"https://eonet.gsfc.nasa.gov/api/v3/events/EONET_13170","closed":null,"categories":[{"id":"wildfires","title":"Wildfires"}],"sources":[{"id":"GDACS","url":"https://www.gdacs.org/report.aspx?eventtype=WF&amp;eventid=1023664"}],"geometry":[{"magnitudeValue":null,"magnitudeUnit":null,"date":"2025-04-03T19:00:00Z","type":"Point","coordinates":[111.995354511152,52.5828794223871]}]},{"id":"EONET_13219","title":"Wildfire in Mexico 1023673","description":null,"link":"https://eonet.gsfc.nasa.gov/api/v3/events/EONET_13219","closed":null,"categories":[{"id":"wildfires","title":"Wildfires"}],"sources":[{"id":"GDACS","url":"https://www.gdacs.org/report.aspx?eventtype=WF&amp;eventid=1023673"}],"geometry":[{"magnitudeValue":null,"magnitudeUnit":null,"date":"2025-04-03T19:00:00Z","type":"Point","coordinates":[-98.3740852113091,23.2977385406779]}]},{"id":"EONET_13186","title":"Rx Lamar 1944 Wildfire, Lamar, Texas","description":null,"link":"https://eonet.gsfc.nasa.gov/api/v3/events/EONET_13186","closed":null,"categories":[{"id":"wildfires","title":"Wildfires"}],"sources":[{"id":"IRWIN","url":"https://irwin.doi.gov/observer/"}],"geometry":[{"magnitudeValue":600,"magnitudeUnit":"acres","date":"2025-04-03T15:38:00Z","type":"Point","coordinates":[-95.68449,33.811122]}]},{"id":"EONET_13185","title":"Bienville CPT 29 RX Wildfire, Scott, Mississippi","description":null,"link":"https://eonet.gsfc.nasa.gov/api/v3/events/EONET_13185","closed":null,"categories":[{"id":"wildfires","title":"Wildfires"}],"sources":[{"id":"IRWIN","url":"https://irwin.doi.gov/observer/"}],"geometry":[{"magnitudeValue":1073,"magnitudeUnit":"acres","date":"2025-04-03T11:17:00Z","type":"Point","coordinates":[-89.6629,32.5425]}]},{"id":"EONET_13187","title":"APQ Rec Area 4 Rx 0402 Wildfire, Polk, Florida","description":null,"link":"https://eonet.gsfc.nasa.gov/api/v3/events/EONET_13187","closed":null,"categories":[{"id":"wildfires","title":"Wildfires"}],"sources":[{"id":"IRWIN","url":"https://irwin.doi.gov/observer/"}],"geometry":[{"magnitudeValue":879,"magnitudeUnit":"acres","date":"2025-04-02T08:10:00Z","type":"Point","coordinates":[-81.316853,27.66313]}]},{"id":"EONET_13192","title":"South Tripp Wildfire, Tripp, South Dakota","description":null,"link":"https://eonet.gsfc.nasa.gov/api/v3/events/EONET_13192","closed":null,"categories":[{"id":"wildfires","title":"Wildfires"}],"sources":[{"id":"IRWIN","url":"https://irwin.doi.gov/observer/"}],"geometry":[{"magnitudeValue":2000,"magnitudeUnit":"acres","date":"2025-04-01T10:57:00Z","type":"Point","coordinates":[-99.778967,43.069733]}]},{"id":"EONET_13193","title":"4108 Wildfire, McKenzie, North Dakota","description":null,"link":"https://eonet.gsfc.nasa.gov/api/v3/events/EONET_13193","closed":null,"categories":[{"id":"wildfires","title":"Wildfires"}],"sources":[{"id":"IRWIN","url":"https://irwin.doi.gov/observer/"}],"geometry":[{"magnitudeValue":900,"magnitudeUnit":"acres","date":"2025-04-01T10:55:00Z","type":"Point","coordinates":[-103.361,48.0087]}]},